% program   : RTKLIB ver.2.4.3
% inp file  : ../example/hkws0010.21o
% inp file  : ../example/hksl0010.21o
% inp file  : ../example/brdm0010.21p
% obs start : 2021/01/01 00:00:00.0 GPST (week2138 432000.0s)
% obs end   : 2021/01/01 23:59:30.0 GPST (week2138 518370.0s)
% pos mode  : Kinematic
% freqs     : L1
% solution  : Forward
% elev mask : 15.0 deg
% dynamics  : off
% tidecorr  : on
% ionos opt : OFF
% tropo opt : OFF
% ephemeris : Broadcast
% navi sys  : GPS GLONASS Galileo BDS
% amb res   : Fix and Hold
% amb glo   : ON
% val thres : 2.0
% antenna1  :                       ( 0.0000  0.0000  0.0000)
% antenna2  :                       ( 0.0000  0.0000  0.0000)
% ref pos   : 22.372002595 113.927988472   95.2694
%
% (e/n/u-baseline=WGS84,Q=1:fix,2:float,3:sbas,4:dgps,5:single,6:ppp,ns=# of satellites)
%  GPST                  e-baseline(m)  n-baseline(m)  u-baseline(m)   Q  ns   sde(m)   sdn(m)   sdu(m)  sden(m)  sdnu(m)  sdue(m) age(s)  ratio
2021/01/01 00:00:00.000     41939.3400      6953.1596      -173.1344   1  28   0.0035   0.0040   0.0087   0.0008   0.0017   0.0008   0.00    4.5
2021/01/01 00:00:30.000     41939.3395      6953.1573      -173.1391   1  32   0.0034   0.0033   0.0081   0.0009   0.0019   0.0014   0.00    3.8
2021/01/01 00:01:00.000     41939.3384      6953.1578      -173.1399   1  32   0.0040   0.0040   0.0081  -0.0010   0.0016   0.0012   0.00    3.4
2021/01/01 00:01:30.000     41939.3388      6953.1564      -173.1422   1  32   0.0043   0.0029   0.0081   0.0017   0.0019   0.0018   0.00    3.3
2021/01/01 00:02:00.000     41939.3386      6953.1554      -173.1420   1  32   0.0026   0.0033   0.0082   0.0010   0.0021   0.0023   0.00    3.1
2021/01/01 00:02:30.000     41939.3391      6953.1567      -173.1409   1  32   0.0033   0.0033   0.0082   0.0008   0.0017   0.0020   0.00    3.0
2021/01/01 00:03:00.000     41939.3397      6953.1547      -173.1404   1  32   0.0035   0.0037   0.0082  -0.0011   0.0020   0.0019   0.00    2.8
2021/01/01 00:03:30.000     41939.3412      6953.1546      -173.1407   1  32   0.0040   0.0031   0.0082   0.0021   0.0012   0.0011   0.00    2.8
2021/01/01 00:04:00.000     41939.3395      6953.1549      -173.1407   1  32   0.0037   0.0041   0.0079  -0.0013   0.0020   0.0009   0.00    2.6
2021/01/01 00:04:30.000     41939.3394      6953.1536      -173.1407   1  32   0.0030   0.0035   0.0080  -0.0017   0.0020   0.0013   0.00    2.6
2021/01/01 00:05:00.000     41939.3407      6953.1553      -173.1379   1  32   0.0030   0.0041   0.0081  -0.0013   0.0015   0.0019   0.00   10.0
2021/01/01 00:05:30.000     41939.3380      6953.1518      -173.1404   2  33   0.0047   0.0039   0.0087   0.0002  -0.0017   0.0024   0.00    1.3
2021/01/01 00:06:00.000     41939.3374      6953.1523      -173.1391   2  33   0.0031   0.0039   0.0089   0.0012   0.0022   0.0030   0.00    1.6
2021/01/01 00:06:30.000     41939.3370      6953.1514      -173.1353   2  33   0.0034   0.0045   0.0090  -0.0009   0.0007   0.0022   0.00    1.9
2021/01/01 00:07:00.000     41939.3407      6953.1555      -173.1311   1  33   0.0039   0.0038   0.0077  -0.0005   0.0017  -0.0005   0.00    2.1
2021/01/01 00:07:30.000     41939.3384      6953.1550      -173.1307   1  33   0.0045   0.0029   0.0078   0.0015   0.0026   0.0011   0.00    2.3
2021/01/01 00:08:00.000     41939.3360      6953.1566      -173.1330   1  33   0.0034   0.0021   0.0078  -0.0007   0.0016   0.0022   0.00    2.5
2021/01/01 00:08:30.000     41939.3369      6953.1573      -173.1343   1  33   0.0040   0.0036   0.0080  -0.0016   0.0020   0.0020   0.00    2.6
2021/01/01 00:09:00.000     41939.3370      6953.1551      -173.1309   1  33   0.0050   0.0035   0.0080   0.0013   0.0019   0.0017   0.00    2.8
2021/01/01 00:09:30.000     41939.3351      6953.1542      -173.1349   1  33   0.0021   0.0026   0.0079   0.0014   0.0020   0.0019   0.00    2.9
2021/01/01 00:10:00.000     41939.3357      6953.1545      -173.1355   1  33   0.0030   0.0038   0.0081   0.0017  -0.0013   0.0019   0.00    3.1
2021/01/01 00:10:30.000     41939.3371      6953.1534      -173.1349   1  33   0.0039   0.0040   0.0079   0.0006   0.0025   0.0007   0.00    3.2
2021/01/01 00:11:00.000     41939.3350      6953.1537      -173.1400   1  33   0.0034   0.0038   0.0080   0.0010   0.0020   0.0014   0.00    3.3
2021/01/01 00:11:30.000     41939.3328      6953.1531      -173.1395   1  33   0.0034   0.0040   0.0079   0.0014   0.0015   0.0015   0.00    3.4
2021/01/01 00:12:00.000     41939.3342      6953.1516      -173.1390   1  33   0.0022   0.0028   0.0079   0.0020   0.0017   0.0010   0.00    7.3
2021/01/01 00:12:30.000     41939.3352      6953.1511      -173.1405   1  33   0.0037   0.0045   0.0079  -0.0027   0.0025   0.0022   0.00   11.5
2021/01/01 00:13:00.000     41939.3355      6953.1506      -173.1405   1  33   0.0037   0.0038   0.0080   0.0011   0.0022   0.0027   0.00   15.9
2021/01/01 00:13:30.000     41939.3363      6953.1503      -173.1444   1  33   0.0025   0.0029   0.0082   0.0016   0.0008   0.0028   0.00   20.5
2021/01/01 00:14:00.000     41939.3369      6953.1500      -173.1458   1  33   0.0037   0.0042   0.0081  -0.0026   0.0020   0.0019   0.00   25.3
2021/01/01 00:14:30.000     41939.3369      6953.1503      -173.1501   1  33   0.0033   0.0031   0.0078   0.0018  -0.0007   0.0022   0.00   30.2
2021/01/01 00:15:00.000     41939.3362      6953.1515      -173.1472   1  33   0.0035   0.0040   0.0079  -0.0012   0.0025   0.0018   0.00   35.2
2021/01/01 00:30:30.000     41939.3408      6953.1490      -173.1367   2  33   0.0034   0.0020   0.0082   0.0024   0.0006   0.0017   0.00    1.2
2021/01/01 00:31:00.000     41939.3390      6953.1501      -173.1443   2  33   0.0039   0.0037   0.0082   0.0013  -0.0003   0.0015   0.00    1.3
2021/01/01 00:31:30.000     41939.3399      6953.1494      -173.1415   2  33   0.0037   0.0037   0.0082  -0.0013  -0.0014   0.0023   0.00    1.4
2021/01/01 00:32:00.000     41939.3406      6953.1505      -173.1448   2  33   0.0035   0.0035   0.0081   0.0025   0.0006   0.0025   0.00    1.5
2021/01/01 00:32:30.000     41939.3411      6953.1474      -173.1461   2  33   0.0037   0.0037   0.0082  -0.0012   0.0014  -0.0015   0.00    1.6
2021/01/01 00:33:00.000     41939.3420      6953.1488      -173.1501   2  34   0.0032   0.0025   0.0080   0.0018   0.0010  -0.0006   0.00    1.2
2021/01/01 00:33:30.000     41939.3403      6953.1495      -173.1534   2  34   0.0034   0.0033   0.0078   0.0011   0.0020   0.0013   0.00    1.4
2021/01/01 00:34:00.000     41939.3387      6953.1492      -173.1557   2  34   0.0039   0.0031   0.0080   0.0006  -0.0014   0.0009   0.00    1.5
2021/01/01 00:34:30.000     41939.3417      6953.1522      -173.1603   2  34   0.0029   0.0042   0.0078   0.0010  -0.0016   0.0019   0.00    1.6
2021/01/01 00:35:00.000     41939.3404      6953.1507      -173.1603   2  35   0.0034   0.0025   0.0078   0.0020  -0.0007   0.0014   0.00    1.2
2021/01/01 00:35:30.000     41939.3383      6953.1496      -173.1655   2  35   0.0037   0.0038   0.0078   0.0012   0.0018  -0.0010   0.00    1.4
2021/01/01 00:36:00.000     41939.3391      6953.1506      -173.1699   2  35   0.0040   0.0036   0.0078  -0.0010  -0.0004  -0.0018   0.00    1.5
2021/01/01 00:36:30.000     41939.3400      6953.1512      -173.1707   2  35   0.0037   0.0026   0.0079   0.0021   0.0015   0.0012   0.00    1.7
2021/01/01 00:37:00.000     41939.3405      6953.1516      -173.1686   2  35   0.0041   0.0031   0.0078   0.0011  -0.0010   0.0007   0.00    1.8
2021/01/01 00:37:30.000     41939.3404      6953.1504      -173.1669   2  34   0.0039   0.0029   0.0080   0.0020   0.0009  -0.0002   0.00    1.9
2021/01/01 00:38:00.000     41939.3397      6953.1513      -173.1651   2  34   0.0040   0.0041   0.0079  -0.0020  -0.0023   0.0018   0.00    1.9
2021/01/01 00:38:30.000     41939.3400      6953.1512      -173.1656   2  34   0.0034   0.0038   0.0080  -0.0014  -0.0015   0.0005   0.00    1.9
2021/01/01 00:39:00.000     41939.3396      6953.1509      -173.1682   2  34   0.0033   0.0032   0.0080   0.0011   0.0009  -0.0012   0.00    1.9
2021/01/01 00:39:30.000     41939.3394      6953.1498      -173.1639   2  34   0.0036   0.0023   0.0081  -0.0013  -0.0009  -0.0012   0.00    1.9
2021/01/01 00:40:00.000     41939.3407      6953.1493      -173.1620   2  34   0.0035   0.0037   0.0078  -0.0011  -0.0010  -0.0010   0.00    2.0
2021/01/01 00:40:30.000     41939.3393      6953.1494      -173.1609   2  34   0.0039   0.0041   0.0081   0.0007  -0.0007  -0.0008   0.00    2.0
2021/01/01 00:41:00.000     41939.3465      6953.1475      -173.1610   1  34   0.0037   0.0032   0.0077   0.0015  -0.0012  -0.0014   0.00    2.0
2021/01/01 00:41:30.000     41939.3470      6953.1466      -173.1574   1  34   0.0038   0.0028   0.0078  -0.0009  -0.0013  -0.0016   0.00    2.0
2021/01/01 00:42:00.000     41939.3483      6953.1464      -173.1549   1  34   0.0039   0.0034   0.0078  -0.0008   0.0015   0.0007   0.00    2.1
2021/01/01 00:42:30.000     41939.3483      6953.1479      -173.1537   1  34   0.0040   0.0036   0.0078   0.0022   0.0007  -0.0004   0.00    2.1
2021/01/01 00:43:00.000     41939.3497      6953.1487      -173.1563   1  34   0.0039   0.0035   0.0078   0.0021  -0.0012  -0.0006   0.00    2.1
2021/01/01 00:43:30.000     41939.3466      6953.1494      -173.1581   1  34   0.0033   0.0034   0.0077   0.0016   0.0011  -0.0018   0.00    2.1
2021/01/01 00:44:00.000     41939.3497      6953.1510      -173.1559   1  34   0.0040   0.0034   0.0078   0.0019   0.0004   0.0011   0.00    2.2
2021/01/01 00:44:30.000     41939.3493      6953.1533      -173.1557   1  34   0.0027   0.0025   0.0076   0.0016  -0.0009  -0.0015   0.00    2.2
2021/01/01 00:45:00.000     41939.3502      6953.1519      -173.1578   1  33   0.0036   0.0039   0.0078   0.0004  -0.0010  -0.0010   0.00    2.2
2021/01/01 00:45:30.000     41939.3494      6953.1527      -173.1571   1  33   0.0041   0.0030   0.0080   0.0017  -0.0009  -0.0020   0.00    2.2
2021/01/01 00:46:00.000     41939.3499      6953.1526      -173.1590   1  33   0.0039   0.0040   0.0081   0.0015  -0.0008  -0.0015   0.00    3.2
2021/01/01 00:46:30.000     41939.3517      6953.1517      -173.1602   1  33   0.0040   0.0035   0.0082   0.0010  -0.0020   0.0015   0.00    4.3
2021/01/01 00:47:00.000     41939.3529      6953.1513      -173.1630   1  33   0.0037   0.0045   0.0081   0.0010  -0.0019   0.0009   0.00    5.5
2021/01/01 00:47:30.000     41939.3524      6953.1540      -173.1564   1  32   0.0035   0.0035   0.0084   0.0007  -0.0010  -0.0008   0.00    6.7
2021/01/01 00:48:00.000     41939.3511      6953.1530      -173.1567   1  32   0.0026   0.0034   0.0084   0.0024   0.0008  -0.0013   0.00    7.9
2021/01/01 00:48:30.000     41939.3517      6953.1547      -173.1549   1  32   0.0031   0.0030   0.0085   0.0014   0.0013   0.0003   0.00    9.0
2021/01/01 00:49:00.000     41939.3514      6953.1559      -173.1579   1  32   0.0035   0.0043   0.0085   0.0006  -0.0011   0.0019   0.00   10.1
2021/01/01 00:49:30.000     41939.3518      6953.1570      -173.1578   1  32   0.0034   0.0036   0.0085   0.0006   0.0004  -0.0015   0.00   11.2
2021/01/01 00:50:00.000     41939.3511      6953.1561      -173.1583   1  32   0.0029   0.0035   0.0085  -0.0017   0.0018  -0.0010   0.00   12.3
2021/01/01 00:50:30.000     41939.3451      6953.1542      -173.1625   2  33   0.0034   0.0036   0.0086  -0.0010  -0.0014   0.0012   0.00    1.3
2021/01/01 00:51:00.000     41939.3441      6953.1531      -173.1605   2  33   0.0035   0.0034   0.0085   0.0009  -0.0017  -0.0008   0.00    1.6
2021/01/01 00:51:30.000     41939.3439      6953.1522      -173.1622   2  33   0.0030   0.0038   0.0086  -0.0005   0.0018  -0.0014   0.00    1.9
2021/01/01 00:52:00.000     41939.3510      6953.1548      -173.1668   1  33   0.0030   0.0037   0.0084   0.0017  -0.0012  -0.0004   0.00    2.1
2021/01/01 00:52:30.000     41939.3506      6953.1546      -173.1672   1  33   0.0028   0.0033   0.0086   0.0012   0.0010   0.0010   0.00    2.4
2021/01/01 00:53:00.000     41939.3496      6953.1554      -173.1642   1  33   0.0033   0.0038   0.0086   0.0014   0.0013   0.0014   0.00    2.6
2021/01/01 00:53:30.000     41939.3487      6953.1553      -173.1672   1  33   0.0029   0.0036   0.0085   0.0004  -0.0015   0.0009   0.00    2.8
2021/01/01 00:54:00.000     41939.3487      6953.1546      -173.1645   1  33   0.0029   0.0038   0.0086   0.0007   0.0018   0.0017   0.00    3.0
2021/01/01 00:54:30.000     41939.3505      6953.1563      -173.1697   1  33   0.0038   0.0044   0.0085   0.0017   0.0011  -0.0010   0.00    3.2
2021/01/01 00:55:00.000     41939.3476      6953.1568      -173.1714   1  33   0.0039   0.0015   0.0086   0.0018   0.0025  -0.0014   0.00    3.4
2021/01/01 00:55:30.000     41939.3484      6953.1554      -173.1711   1  33   0.0029   0.0035   0.0087   0.0014   0.0017  -0.0011   0.00    3.6
2021/01/01 00:56:00.000     41939.3404      6953.1518      -173.1750   2  34   0.0033   0.0030   0.0086   0.0011   0.0006   0.0012   0.00    1.1
2021/01/01 00:56:30.000     41939.3401      6953.1523      -173.1740   2  34   0.0037   0.0041   0.0086   0.0005  -0.0009   0.0014   0.00    1.2
2021/01/01 00:57:00.000     41939.3412      6953.1539      -173.1726   2  34   0.0039   0.0046   0.0086   0.0020  -0.0008  -0.0018   0.00    1.3
2021/01/01 00:57:30.000     41939.3385      6953.1541      -173.1736   2  34   0.0036   0.0027   0.0086  -0.0018  -0.0009   0.0007   0.00    1.3
2021/01/01 00:58:00.000     41939.3382      6953.1550      -173.1741   2  34   0.0038   0.0020   0.0087   0.0009  -0.0013   0.0016   0.00    1.4
2021/01/01 00:58:30.000     41939.3372      6953.1539      -173.1722   2  34   0.0035   0.0024   0.0086  -0.0008   0.0010   0.0019   0.00    1.5
2021/01/01 00:59:00.000     41939.3387      6953.1549      -173.1733   2  34   0.0032   0.0030   0.0087  -0.0014  -0.0004   0.0017   0.00    1.6
2021/01/01 00:59:30.000     41939.3396      6953.1543      -173.1765   2  33   0.0038   0.0036   0.0088  -0.0013  -0.0015   0.0018   0.00    1.7
2021/01/01 01:00:00.000     41939.3400      6953.1524      -173.1800   2  33   0.0043   0.0027   0.0088   0.0005   0.0013   0.0012   0.00    1.8
2021/01/01 01:00:30.000     41939.3399      6953.1511      -173.1826   2  33   0.0037   0.0030   0.0088  -0.0009  -0.0018   0.0013   0.00    1.9
2021/01/01 01:01:00.000     41939.3417      6953.1520      -173.1855   2  33   0.0021   0.0023   0.0086   0.0022   0.0006  -0.0015   0.00    1.9
2021/01/01 01:01:30.000     41939.3416      6953.1525      -173.1836   2  33   0.0039   0.0026   0.0087   0.0019  -0.0013  -0.0014   0.00    2.0
2021/01/01 01:02:00.000     41939.3540      6953.1561      -173.1932   1  32   0.0037   0.0041   0.0091   0.0022  -0.0018  -0.0018   0.00    2.1
2021/01/01 01:02:30.000     41939.3550      6953.1548      -173.1928   1  32   0.0024   0.0040   0.0090   0.0021  -0.0017  -0.0021   0.00    2.2
2021/01/01 01:03:00.000     41939.3564      6953.1559      -173.1963   1  32   0.0036   0.0034   0.0090   0.0007  -0.0017  -0.0017   0.00    2.2
2021/01/01 01:03:30.000     41939.3563      6953.1545      -173.1921   1  32   0.0018   0.0026   0.0090   0.0019  -0.0015  -0.0015   0.00    2.3
2021/01/01 01:04:00.000     41939.3565      6953.1555      -173.1953   1  32   0.0032   0.0036   0.0090   0.0016   0.0009  -0.0020   0.00    2.3
2021/01/01 01:04:30.000     41939.3561      6953.1557      -173.1910   1  32   0.0034   0.0035   0.0090   0.0014   0.0006  -0.0021   0.00    2.3
2021/01/01 01:05:00.000     41939.3575      6953.1561      -173.1878   1  32   0.0030   0.0035   0.0091   0.0019  -0.0009  -0.0025   0.00    2.4
2021/01/01 01:05:30.000     41939.3571      6953.1545      -173.1855   1  32   0.0039   0.0033   0.0090   0.0016  -0.0014  -0.0018   0.00    2.4
2021/01/01 01:06:00.000     41939.3573      6953.1556      -173.1886   1  32   0.0031   0.0029   0.0090   0.0011  -0.0013  -0.0023   0.00    2.5
2021/01/01 01:06:30.000     41939.3566      6953.1568      -173.1870   1  32   0.0040   0.0032   0.0091   0.0012  -0.0016  -0.0025   0.00    2.5
2021/01/01 01:07:00.000     41939.3557      6953.1571      -173.1878   1  32   0.0035   0.0037   0.0091   0.0017  -0.0003  -0.0019   0.00    6.3
2021/01/01 01:07:30.000     41939.3542      6953.1580      -173.1898   1  32   0.0031   0.0028   0.0089   0.0015  -0.0016  -0.0021   0.00   10.4
2021/01/01 01:08:00.000     41939.3547      6953.1587      -173.1854   1  32   0.0029   0.0036   0.0091   0.0015  -0.0016  -0.0014   0.00   13.7
2021/01/01 01:08:30.000     41939.3544      6953.1568      -173.1863   1  32   0.0035   0.0033   0.0092   0.0011   0.0011  -0.0015   0.00   14.9
2021/01/01 01:09:00.000     41939.3528      6953.1567      -173.1912   1  32   0.0044   0.0041   0.0092   0.0025  -0.0027  -0.0018   0.00   16.1
2021/01/01 01:09:30.000     41939.3526      6953.1561      -173.1936   1  32   0.0032   0.0031   0.0091   0.0014   0.0006  -0.0008   0.00   17.2
2021/01/01 01:10:00.000     41939.3536      6953.1545      -173.1957   1  32   0.0038   0.0041   0.0092   0.0003  -0.0003  -0.0016   0.00   18.3
2021/01/01 01:10:30.000     41939.3547      6953.1533      -173.1969   1  32   0.0042   0.0044   0.0093   0.0014   0.0008  -0.0019   0.00   19.4
2021/01/01 01:11:00.000     41939.3542      6953.1512      -173.2022   1  32   0.0037   0.0025   0.0091   0.0024  -0.0014  -0.0017   0.00   20.4
2021/01/01 01:11:30.000     41939.3545      6953.1502      -173.2032   1  32   0.0026   0.0033   0.0091  -0.0009   0.0012  -0.0017   0.00   21.4
2021/01/01 01:12:00.000     41939.3551      6953.1490      -173.2037   1  32   0.0035   0.0037   0.0092   0.0016  -0.0022  -0.0020   0.00   22.4
2021/01/01 01:12:30.000     41939.3501      6953.1453      -173.2039   2  33   0.0038   0.0032   0.0092   0.0017  -0.0009  -0.0014   0.00    1.1
2021/01/01 01:13:00.000     41939.3502      6953.1443      -173.2091   2  33   0.0041   0.0031   0.0092   0.0018  -0.0013  -0.0016   0.00    1.1
2021/01/01 01:13:30.000     41939.3515      6953.1441      -173.2075   2  33   0.0026   0.0034   0.0091  -0.0015  -0.0015  -0.0018   0.00    1.2
2021/01/01 01:14:00.000     41939.3518      6953.1448      -173.2082   2  33   0.0033   0.0029   0.0090   0.0012  -0.0019  -0.0024   0.00    1.2
2021/01/01 01:14:30.000     41939.3514      6953.1461      -173.2061   2  33   0.0032   0.0040   0.0091  -0.0007  -0.0003  -0.0018   0.00    1.3
2021/01/01 01:15:00.000     41939.3518      6953.1490      -173.2143   2  33   0.0038   0.0035   0.0089   0.0015  -0.0021  -0.0013   0.00    1.3
2021/01/01 01:15:30.000     41939.3530      6953.1485      -173.2083   2  33   0.0035   0.0032   0.0090   0.0023  -0.0018  -0.0012   0.00    1.4
2021/01/01 01:16:00.000     41939.3530      6953.1504      -173.2075   2  34   0.0038   0.0027   0.0091  -0.0006  -0.0014   0.0014   0.00    1.1
2021/01/01 01:16:30.000     41939.3539      6953.1517      -173.2037   2  34   0.0034   0.0041   0.0090   0.0006  -0.0017  -0.0012   0.00    1.0
2021/01/01 01:17:00.000     41939.3519      6953.1510      -173.2000   2  34   0.0031   0.0037   0.0086   0.0010  -0.0025  -0.0024   0.00    1.1
2021/01/01 01:17:30.000     41939.3538      6953.1500      -173.1963   2  34   0.0042   0.0030   0.0086  -0.0006  -0.0014  -0.0023   0.00    1.2
2021/01/01 01:18:00.000     41939.3539      6953.1502      -173.1962   2  34   0.0037   0.0039   0.0087   0.0013  -0.0029  -0.0015   0.00    1.2
2021/01/01 01:18:30.000     41939.3553      6953.1507      -173.1971   2  34   0.0031   0.0027   0.0085   0.0019  -0.0011  -0.0029   0.00    1.2
2021/01/01 01:19:00.000     41939.3560      6953.1507      -173.1936   2  34   0.0032   0.0032   0.0086  -0.0008  -0.0016  -0.0008   0.00    1.3
2021/01/01 01:19:30.000     41939.3567      6953.1483      -173.1863   2  34   0.0028   0.0029   0.0086  -0.0009  -0.0007  -0.0012   0.00    1.3
2021/01/01 01:20:00.000     41939.3579      6953.1479      -173.1832   2  34   0.0039   0.0036   0.0087  -0.0005  -0.0021  -0.0015   0.00    1.3
2021/01/01 01:20:30.000     41939.3557      6953.1474      -173.1816   2  34   0.0035   0.0031   0.0085   0.0010  -0.0022  -0.0025   0.00    1.3
2021/01/01 01:21:00.000     41939.3556      6953.1461      -173.1786   2  34   0.0038   0.0041   0.0086   0.0014  -0.0025  -0.0020   0.00    1.4
2021/01/01 01:21:30.000     41939.3549      6953.1441      -173.1799   2  34   0.0035   0.0028   0.0087   0.0018  -0.0009  -0.0010   0.00    1.4
2021/01/01 01:22:00.000     41939.3533      6953.1437      -173.1791   2  34   0.0034   0.0034   0.0088   0.0022  -0.0020   0.0017   0.00    1.4
2021/01/01 01:22:30.000     41939.3535      6953.1428      -173.1799   2  34   0.0032   0.0027   0.0085   0.0011  -0.0019  -0.0019   0.00    1.5
2021/01/01 01:23:00.000     41939.3547      6953.1440      -173.1792   2  34   0.0033   0.0037   0.0088   0.0018  -0.0026  -0.0004   0.00    1.5
2021/01/01 01:23:30.000     41939.3535      6953.1424      -173.1765   2  34   0.0038   0.0038   0.0087   0.0008  -0.0021  -0.0007   0.00    1.5
2021/01/01 01:24:00.000     41939.3526      6953.1420      -173.1722   2  34   0.0021   0.0039   0.0085   0.0020  -0.0021   0.0012   0.00    1.5
2021/01/01 01:24:30.000     41939.3534      6953.1416      -173.1726   2  34   0.0037   0.0033   0.0086   0.0007  -0.0030  -0.0020   0.00    1.5
2021/01/01 01:25:00.000     41939.3535      6953.1407      -173.1688   2  34   0.0032   0.0036   0.0086   0.0016  -0.0026  -0.0024   0.00    1.5
2021/01/01 01:25:30.000     41939.3540      6953.1385      -173.1685   2  34   0.0038   0.0036   0.0086  -0.0018  -0.0026  -0.0018   0.00    1.6
2021/01/01 01:26:00.000     41939.3572      6953.1364      -173.1731   2  34   0.0038   0.0039   0.0088   0.0013  -0.0028   0.0012   0.00    1.6
2021/01/01 01:26:30.000     41939.3582      6953.1358      -173.1697   2  34   0.0028   0.0046   0.0086   0.0013  -0.0026   0.0009   0.00    1.7
2021/01/01 01:27:00.000     41939.3588      6953.1352      -173.1726   2  34   0.0039   0.0031   0.0088   0.0015  -0.0024   0.0007   0.00    1.7
2021/01/01 01:27:30.000     41939.3588      6953.1338      -173.1727   2  34   0.0038   0.0034   0.0085   0.0011  -0.0029  -0.0017   0.00    1.8
2021/01/01 01:28:00.000     41939.3582      6953.1300      -173.1715   2  33   0.0028   0.0029   0.0090   0.0018  -0.0011  -0.0009   0.00    1.9
2021/01/01 01:28:30.000     41939.3586      6953.1296      -173.1722   2  33   0.0032   0.0040   0.0089   0.0023  -0.0025   0.0013   0.00    1.9
2021/01/01 01:29:00.000     41939.3572      6953.1288      -173.1679   2  33   0.0037   0.0029   0.0091   0.0022  -0.0023  -0.0012   0.00    2.0
2021/01/01 01:29:30.000     41939.3548      6953.1295      -173.1661   2  33   0.0035   0.0027   0.0089   0.0018  -0.0015  -0.0020   0.00    2.0
2021/01/01 01:30:00.000     41939.3545      6953.1360      -173.1576   1  33   0.0028   0.0039   0.0090   0.0012  -0.0016  -0.0006   0.00    2.0
2021/01/01 01:30:30.000     41939.3531      6953.1371      -173.1582   1  33   0.0027   0.0032   0.0088   0.0019  -0.0027  -0.0007   0.00    2.1
2021/01/01 01:31:00.000     41939.3517      6953.1384      -173.1577   1  33   0.0034   0.0026   0.0088   0.0014  -0.0022  -0.0002   0.00    2.1
2021/01/01 01:31:30.000     41939.3485      6953.1301      -173.1699   2  34   0.0027   0.0032   0.0090   0.0013  -0.0018  -0.0009   0.00    1.0
2021/01/01 01:32:00.000     41939.3474      6953.1290      -173.1679   2  34   0.0043   0.0034   0.0090   0.0022   0.0012  -0.0012   0.00    1.0
2021/01/01 01:32:30.000     41939.3470      6953.1297      -173.1717   2  34   0.0026   0.0030   0.0088   0.0018  -0.0026   0.0009   0.00    1.0
2021/01/01 01:33:00.000     41939.3466      6953.1296      -173.1769   2  34   0.0028   0.0043   0.0091   0.0012  -0.0022   0.0008   0.00    1.1
2021/01/01 01:33:30.000     41939.3462      6953.1290      -173.1761   2  34   0.0034   0.0037   0.0089  -0.0005  -0.0022  -0.0019   0.00    1.1
2021/01/01 01:34:00.000     41939.3458      6953.1280      -173.1825   2  34   0.0031   0.0036   0.0089   0.0006  -0.0027  -0.0017   0.00    1.1
2021/01/01 01:34:30.000     41939.3473      6953.1277      -173.1870   2  34   0.0027   0.0035   0.0090   0.0010  -0.0018   0.0014   0.00    1.1
2021/01/01 01:35:00.000     41939.3488      6953.1260      -173.1932   2  34   0.0036   0.0034   0.0088   0.0014  -0.0025  -0.0016   0.00    1.1
2021/01/01 01:35:30.000     41939.3490      6953.1261      -173.2032   2  34   0.0039   0.0034   0.0091   0.0019  -0.0016  -0.0007   0.00    1.1
2021/01/01 01:36:00.000     41939.3501      6953.1247      -173.2120   2  34   0.0037   0.0027   0.0089   0.0014  -0.0017  -0.0021   0.00    1.1
2021/01/01 01:36:30.000     41939.3522      6953.1260      -173.2160   2  34   0.0030   0.0028   0.0091  -0.0011  -0.0022   0.0014   0.00    1.1
2021/01/01 01:37:00.000     41939.3541      6953.1249      -173.2202   2  34   0.0032   0.0034   0.0090   0.0017  -0.0024   0.0010   0.00    1.1
2021/01/01 01:37:30.000     41939.3543      6953.1255      -173.2278   2  34   0.0029   0.0037   0.0090   0.0009   0.0015   0.0005   0.00    1.1
2021/01/01 01:38:00.000     41939.3554      6953.1255      -173.2307   2  34   0.0040   0.0036   0.0089   0.0008  -0.0022  -0.0014   0.00    1.1
2021/01/01 01:38:30.000     41939.3552      6953.1274      -173.2367   2  34   0.0028   0.0034   0.0091   0.0010  -0.0024  -0.0011   0.00    1.1
2021/01/01 01:39:00.000     41939.3559      6953.1279      -173.2408   2  34   0.0035   0.0042   0.0090  -0.0004  -0.0033  -0.0020   0.00    1.2
2021/01/01 01:39:30.000     41939.3575      6953.1294      -173.2385   2  34   0.0031   0.0033   0.0091   0.0017  -0.0016   0.0016   0.00    1.2
2021/01/01 01:40:00.000     41939.3579      6953.1314      -173.2427   2  34   0.0032   0.0029   0.0091   0.0015  -0.0011   0.0004   0.00    1.2
2021/01/01 01:40:30.000     41939.3579      6953.1321      -173.2432   2  34   0.0032   0.0038   0.0090   0.0021  -0.0025   0.0012   0.00    1.2
2021/01/01 01:41:00.000     41939.3574      6953.1305      -173.2406   2  34   0.0038   0.0033   0.0088   0.0017  -0.0031  -0.0023   0.00    1.2
2021/01/01 01:41:30.000     41939.3557      6953.1309      -173.2362   2  34   0.0034   0.0036   0.0091   0.0012  -0.0023  -0.0013   0.00    1.2
2021/01/01 01:42:00.000     41939.3548      6953.1315      -173.2340   2  34   0.0034   0.0016   0.0090   0.0022  -0.0019  -0.0012   0.00    1.2
2021/01/01 01:42:30.000     41939.3529      6953.1316      -173.2333   2  34   0.0033   0.0037   0.0091  -0.0020  -0.0019  -0.0011   0.00    1.2
2021/01/01 01:43:00.000     41939.3529      6953.1312      -173.2330   2  34   0.0032   0.0033   0.0091  -0.0003  -0.0018   0.0011   0.00    1.2
2021/01/01 01:43:30.000     41939.3499      6953.1290      -173.2287   2  34   0.0034   0.0039   0.0092   0.0013  -0.0011  -0.0011   0.00    1.2
2021/01/01 01:44:00.000     41939.3495      6953.1290      -173.2289   2  34   0.0027   0.0028   0.0090   0.0012  -0.0026  -0.0007   0.00    1.2
2021/01/01 01:44:30.000     41939.3475      6953.1272      -173.2266   2  34   0.0024   0.0037   0.0090   0.0021  -0.0018  -0.0019   0.00    1.2
2021/01/01 01:45:00.000     41939.3491      6953.1273      -173.2286   2  34   0.0035   0.0023   0.0090   0.0025  -0.0029   0.0004   0.00    1.2
2021/01/01 01:45:30.000     41939.3486      6953.1273      -173.2365   2  35   0.0031   0.0011   0.0091  -0.0010  -0.0018  -0.0016   0.00    1.0
2021/01/01 01:46:00.000     41939.3477      6953.1270      -173.2325   2  35   0.0020   0.0031   0.0091  -0.0021   0.0016  -0.0017   0.00    1.0
2021/01/01 01:46:30.000     41939.3468      6953.1281      -173.2421   2  35   0.0033   0.0026   0.0089  -0.0014  -0.0027   0.0014   0.00    1.0
2021/01/01 01:47:00.000     41939.3470      6953.1284      -173.2431   2  35   0.0030   0.0039   0.0089   0.0020  -0.0015  -0.0016   0.00    1.0
2021/01/01 01:47:30.000     41939.3454      6953.1277      -173.2429   2  35   0.0037   0.0034   0.0089  -0.0006  -0.0013  -0.0017   0.00    1.0
2021/01/01 01:48:00.000     41939.3459      6953.1290      -173.2432   2  35   0.0027   0.0028   0.0087   0.0017  -0.0032  -0.0017   0.00    1.0
2021/01/01 01:48:30.000     41939.3461      6953.1308      -173.2508   2  35   0.0026   0.0043   0.0090  -0.0009  -0.0011  -0.0017   0.00    1.1
2021/01/01 01:49:00.000     41939.3442      6953.1315      -173.2552   2  35   0.0033   0.0033   0.0090   0.0013  -0.0018  -0.0003   0.00    1.1
2021/01/01 01:49:30.000     41939.3449      6953.1313      -173.2551   2  35   0.0039   0.0038   0.0088   0.0026  -0.0029   0.0005   0.00    1.1
2021/01/01 01:50:00.000     41939.3457      6953.1327      -173.2617   2  35   0.0037   0.0030   0.0090  -0.0010  -0.0010  -0.0015   0.00    1.1
2021/01/01 01:50:30.000     41939.3452      6953.1311      -173.2621   2  35   0.0025   0.0038   0.0088   0.0018  -0.0020  -0.0011   0.00    1.1
2021/01/01 01:51:00.000     41939.3456      6953.1310      -173.2645   2  35   0.0034   0.0039   0.0089  -0.0002  -0.0025   0.0005   0.00    1.1
2021/01/01 01:51:30.000     41939.3470      6953.1298      -173.2657   2  35   0.0034   0.0026   0.0090  -0.0016  -0.0024   0.0012   0.00    1.1
2021/01/01 01:52:00.000     41939.3463      6953.1280      -173.2695   2  35   0.0031   0.0028   0.0086   0.0025  -0.0029  -0.0009   0.00    1.1
2021/01/01 01:52:30.000     41939.3455      6953.1280      -173.2720   2  35   0.0031   0.0032   0.0089  -0.0019  -0.0019  -0.0019   0.00    1.1
2021/01/01 01:53:00.000     41939.3439      6953.1282      -173.2717   2  35   0.0035   0.0040   0.0090  -0.0017  -0.0011  -0.0012   0.00    1.1
2021/01/01 01:53:30.000     41939.3457      6953.1280      -173.2737   2  35   0.0031   0.0026   0.0089   0.0018  -0.0028   0.0010   0.00    1.2
2021/01/01 01:54:00.000     41939.3463      6953.1291      -173.2749   2  35   0.0040   0.0035   0.0090   0.0016  -0.0030  -0.0010   0.00    1.2
2021/01/01 01:54:30.000     41939.3460      6953.1244      -173.2828   2  34   0.0032   0.0026   0.0090   0.0018  -0.0022  -0.0006   0.00    1.2
2021/01/01 01:55:00.000     41939.3471      6953.1261      -173.2834   2  34   0.0036   0.0039   0.0090   0.0014  -0.0023  -0.0014   0.00    1.2
2021/01/01 01:55:30.000     41939.3488      6953.1260      -173.2924   2  34   0.0038   0.0040   0.0090   0.0019  -0.0023  -0.0015   0.00    1.2
2021/01/01 01:56:00.000     41939.3495      6953.1263      -173.2924   2  34   0.0035   0.0039   0.0089   0.0020  -0.0024  -0.0016   0.00    1.2
2021/01/01 01:56:30.000     41939.3494      6953.1277      -173.2930   2  34   0.0036   0.0037   0.0090   0.0003  -0.0018  -0.0021   0.00    1.2
2021/01/01 01:57:00.000     41939.3498      6953.1265      -173.2929   2  34   0.0027   0.0019   0.0089   0.0012  -0.0025  -0.0001   0.00    1.2
2021/01/01 01:57:30.000     41939.3522      6953.1299      -173.3033   2  34   0.0041   0.0026   0.0091   0.0026  -0.0028   0.0014   0.00    1.2
2021/01/01 01:58:00.000     41939.3547      6953.1306      -173.2997   2  34   0.0028   0.0018   0.0090   0.0006  -0.0023   0.0006   0.00    1.2
2021/01/01 01:58:30.000     41939.3557      6953.1319      -173.3026   2  34   0.0035   0.0032   0.0090   0.0016  -0.0029   0.0006   0.00    1.3
2021/01/01 01:59:00.000     41939.3557      6953.1327      -173.3032   2  34   0.0033   0.0028   0.0092   0.0020  -0.0019   0.0018   0.00    1.3
2021/01/01 01:59:30.000     41939.3556      6953.1350      -173.3023   2  34   0.0035   0.0033   0.0090   0.0008  -0.0027   0.0015   0.00    1.3
2021/01/01 02:00:00.000     41939.3562      6953.1355      -173.2999   2  34   0.0025   0.0027   0.0090   0.0011  -0.0028  -0.0013   0.00    1.3
2021/01/01 02:00:30.000     41939.3580      6953.1374      -173.3037   2  34   0.0033   0.0033   0.0091   0.0009  -0.0021   0.0016   0.00    1.3
2021/01/01 02:01:00.000     41939.3573      6953.1380      -173.3025   2  34   0.0032   0.0023   0.0090   0.0023  -0.0023   0.0016   0.00    1.3
2021/01/01 02:01:30.000     41939.3563      6953.1403      -173.3013   2  34   0.0035   0.0028   0.0091  -0.0013  -0.0017  -0.0023   0.00    1.3
2021/01/01 02:02:00.000     41939.3566      6953.1407      -173.3030   2  34   0.0030   0.0038   0.0092  -0.0008   0.0008  -0.0016   0.00    1.3
2021/01/01 02:02:30.000     41939.3563      6953.1417      -173.3043   2  34   0.0028   0.0038   0.0090   0.0008  -0.0015  -0.0018   0.00    1.4
2021/01/01 02:03:00.000     41939.3589      6953.1414      -173.3048   2  34   0.0032   0.0015   0.0092   0.0015  -0.0005  -0.0003   0.00    1.4
2021/01/01 02:03:30.000     41939.3600      6953.1434      -173.3068   2  34   0.0033   0.0037   0.0091   0.0009  -0.0026  -0.0009   0.00    1.4
2021/01/01 02:04:00.000     41939.3601      6953.1428      -173.2996   2  34   0.0033   0.0031   0.0089   0.0020  -0.0029  -0.0016   0.00    1.4
2021/01/01 02:04:30.000     41939.3620      6953.1408      -173.3039   2  35   0.0031   0.0035   0.0091  -0.0014  -0.0013  -0.0016   0.00    1.0
2021/01/01 02:05:00.000     41939.3651      6953.1404      -173.3065   2  35   0.0035   0.0041   0.0091   0.0011  -0.0032  -0.0009   0.00    1.0
2021/01/01 02:05:30.000     41939.3662      6953.1394      -173.3095   2  35   0.0040   0.0025   0.0091   0.0014  -0.0018  -0.0017   0.00    1.0
2021/01/01 02:06:00.000     41939.3690      6953.1373      -173.3066   2  35   0.0030   0.0025   0.0090   0.0020  -0.0027   0.0014   0.00    1.0
2021/01/01 02:06:30.000     41939.3705      6953.1377      -173.3122   2  35   0.0027   0.0036   0.0090   0.0025  -0.0023  -0.0017   0.00    1.0
2021/01/01 02:07:00.000     41939.3733      6953.1355      -173.3160   2  35   0.0029   0.0029   0.0091  -0.0016  -0.0014  -0.0022   0.00    1.0
2021/01/01 02:07:30.000     41939.3745      6953.1365      -173.3154   2  35   0.0032   0.0032   0.0089   0.0012  -0.0027  -0.0005   0.00    1.0
2021/01/01 02:08:00.000     41939.3753      6953.1365      -173.3171   2  35   0.0026   0.0036   0.0089   0.0019  -0.0022  -0.0011   0.00    1.0
2021/01/01 02:08:30.000     41939.3762      6953.1364      -173.3222   2  35   0.0029   0.0034   0.0092   0.0027  -0.0018   0.0019   0.00    1.0
2021/01/01 02:09:00.000     41939.3760      6953.1362      -173.3243   2  34   0.0034   0.0034   0.0091   0.0005  -0.0009   0.0006   0.00    1.0
2021/01/01 02:09:30.000     41939.3747      6953.1359      -173.3271   2  34   0.0033   0.0036   0.0092   0.0016  -0.0021  -0.0015   0.00    1.0
2021/01/01 02:10:00.000     41939.3739      6953.1337      -173.3197   2  34   0.0028   0.0026   0.0090   0.0022  -0.0023  -0.0020   0.00    1.0
2021/01/01 02:10:30.000     41939.3735      6953.1336      -173.3189   2  34   0.0030   0.0019   0.0089   0.0025  -0.0036   0.0009   0.00    1.0
2021/01/01 02:11:00.000     41939.3725      6953.1327      -173.3170   2  34   0.0038   0.0041   0.0092   0.0009  -0.0017   0.0008   0.00    1.0
2021/01/01 02:11:30.000     41939.3749      6953.1335      -173.3143   2  34   0.0025   0.0030   0.0091   0.0012  -0.0023   0.0025   0.00    1.0
2021/01/01 02:12:00.000     41939.3750      6953.1334      -173.3165   2  34   0.0039   0.0031   0.0090   0.0012  -0.0033  -0.0011   0.00    1.0
2021/01/01 02:12:30.000     41939.3732      6953.1303      -173.3176   2  34   0.0029   0.0037   0.0091   0.0007  -0.0027   0.0011   0.00    1.0
2021/01/01 02:13:00.000     41939.3736      6953.1291      -173.3171   2  34   0.0034   0.0030   0.0091   0.0027  -0.0021   0.0006   0.00    1.0
2021/01/01 02:13:30.000     41939.3727      6953.1280      -173.3171   2  34   0.0027   0.0022   0.0089   0.0023  -0.0030   0.0006   0.00    1.0
2021/01/01 02:14:00.000     41939.3729      6953.1274      -173.3167   2  34   0.0037   0.0036   0.0092  -0.0019  -0.0016  -0.0004   0.00    1.0
2021/01/01 02:14:30.000     41939.3710      6953.1265      -173.3106   2  34   0.0020   0.0025   0.0089   0.0019  -0.0023  -0.0010   0.00    1.0
2021/01/01 02:15:00.000     41939.3706      6953.1260      -173.3084   2  34   0.0037   0.0026   0.0089   0.0013  -0.0003  -0.0013   0.00    1.0
2021/01/01 02:15:30.000     41939.3693      6953.1256      -173.3046   2  34   0.0020   0.0037   0.0090  -0.0012  -0.0021   0.0019   0.00    1.0
2021/01/01 02:16:00.000     41939.3685      6953.1271      -173.2961   2  34   0.0029   0.0028   0.0090   0.0015  -0.0031   0.0017   0.00    1.0
2021/01/01 02:16:30.000     41939.3664      6953.1252      -173.2932   2  34   0.0030   0.0037   0.0090   0.0003  -0.0027   0.0015   0.00    1.0
2021/01/01 02:17:00.000     41939.3661      6953.1253      -173.2862   2  34   0.0032   0.0030   0.0092   0.0017  -0.0020   0.0008   0.00    1.0
2021/01/01 02:17:30.000     41939.3651      6953.1259      -173.2818   2  34   0.0034   0.0014   0.0091   0.0022  -0.0030   0.0014   0.00    1.0
2021/01/01 02:18:00.000     41939.3652      6953.1265      -173.2755   2  34   0.0041   0.0035   0.0091   0.0017  -0.0030   0.0029   0.00    1.0
2021/01/01 02:18:30.000     41939.3630      6953.1268      -173.2728   2  33   0.0029   0.0000   0.0093   0.0021  -0.0027   0.0021   0.00    1.1
2021/01/01 02:19:00.000     41939.3624      6953.1275      -173.2762   2  33   0.0036   0.0031   0.0093   0.0028  -0.0001  -0.0018   0.00    1.1
2021/01/01 02:19:30.000     41939.3639      6953.1285      -173.2854   2  33   0.0035   0.0035   0.0094   0.0020  -0.0028   0.0020   0.00    1.1
2021/01/01 02:20:00.000     41939.3614      6953.1266      -173.2881   2  33   0.0028   0.0022   0.0094  -0.0009  -0.0023   0.0018   0.00    1.1
2021/01/01 02:20:30.000     41939.3616      6953.1278      -173.2984   2  33   0.0034   0.0034   0.0095   0.0022  -0.0018   0.0017   0.00    1.1
2021/01/01 02:21:00.000     41939.3607      6953.1278      -173.3045   2  33   0.0036   0.0032   0.0093   0.0005  -0.0022   0.0014   0.00    1.1
2021/01/01 02:21:30.000     41939.3593      6953.1268      -173.3007   2  33   0.0022   0.0032   0.0093  -0.0013  -0.0023  -0.0016   0.00    1.1
2021/01/01 02:22:00.000     41939.3588      6953.1272      -173.3053   2  33   0.0032   0.0037   0.0095  -0.0017  -0.0021   0.0028   0.00    1.1
2021/01/01 02:22:30.000     41939.3570      6953.1287      -173.3105   2  33   0.0037   0.0035   0.0095   0.0015  -0.0016   0.0017   0.00    1.1
2021/01/01 02:23:00.000     41939.3570      6953.1274      -173.3044   2  33   0.0019   0.0036   0.0091   0.0014  -0.0033  -0.0006   0.00    1.1
2021/01/01 02:23:30.000     41939.3565      6953.1279      -173.3057   2  33   0.0036   0.0025   0.0093   0.0021  -0.0026  -0.0015   0.00    1.1
2021/01/01 02:24:00.000     41939.3584      6953.1286      -173.3042   2  33   0.0036   0.0013   0.0092   0.0017  -0.0026   0.0007   0.00    1.1
2021/01/01 02:24:30.000     41939.3589      6953.1319      -173.3022   2  33   0.0033   0.0037   0.0092  -0.0007  -0.0030   0.0011   0.00    1.1
2021/01/01 02:25:00.000     41939.3592      6953.1325      -173.3011   2  33   0.0041   0.0030   0.0093   0.0011  -0.0021   0.0014   0.00    1.1
2021/01/01 02:25:30.000     41939.3614      6953.1360      -173.3020   2  33   0.0032   0.0010   0.0094  -0.0016  -0.0019  -0.0020   0.00    1.1
2021/01/01 02:26:00.000     41939.3624      6953.1378      -173.2994   2  33   0.0031   0.0039   0.0094  -0.0010  -0.0020   0.0007   0.00    1.1
2021/01/01 02:26:30.000     41939.3639      6953.1393      -173.2967   2  33   0.0037   0.0037   0.0095   0.0009  -0.0021   0.0021   0.00    1.1
2021/01/01 02:27:00.000     41939.3647      6953.1388      -173.2889   2  33   0.0033   0.0030   0.0093  -0.0009  -0.0016   0.0008   0.00    1.1
2021/01/01 02:27:30.000     41939.3660      6953.1399      -173.2858   2  33   0.0035   0.0030   0.0092   0.0016  -0.0031  -0.0007   0.00    1.1
2021/01/01 02:28:00.000     41939.3683      6953.1416      -173.2801   2  33   0.0030   0.0025   0.0092  -0.0017  -0.0028   0.0014   0.00    1.1
2021/01/01 02:28:30.000     41939.3675      6953.1420      -173.2793   2  33   0.0034   0.0025   0.0093  -0.0022  -0.0017   0.0018   0.00    1.1
2021/01/01 02:29:00.000     41939.3684      6953.1449      -173.2851   2  33   0.0022   0.0047   0.0093   0.0007  -0.0016  -0.0010   0.00    1.1
2021/01/01 02:29:30.000     41939.3691      6953.1438      -173.2796   2  34   0.0038   0.0033   0.0095   0.0005  -0.0011   0.0007   0.00    1.0
2021/01/01 02:30:00.000     41939.3706      6953.1460      -173.2793   2  34   0.0036   0.0043   0.0093   0.0014  -0.0025   0.0021   0.00    1.0
2021/01/01 02:30:30.000     41939.3708      6953.1456      -173.2792   2  34   0.0035   0.0029   0.0091   0.0009  -0.0024   0.0004   0.00    1.0
2021/01/01 02:31:00.000     41939.3721      6953.1459      -173.2752   2  34   0.0035   0.0018   0.0092   0.0012  -0.0028   0.0007   0.00    1.0
2021/01/01 02:31:30.000     41939.3740      6953.1475      -173.2755   2  34   0.0031   0.0023   0.0090   0.0016  -0.0019  -0.0012   0.00    1.0
2021/01/01 02:32:00.000     41939.3741      6953.1481      -173.2719   2  34   0.0037   0.0033   0.0092  -0.0019  -0.0020   0.0021   0.00    1.0
2021/01/01 02:32:30.000     41939.3786      6953.1466      -173.2726   2  34   0.0029   0.0036   0.0092   0.0016  -0.0013   0.0023   0.00    1.0
2021/01/01 02:33:00.000     41939.3815      6953.1467      -173.2614   2  34   0.0030   0.0031   0.0089   0.0006  -0.0023  -0.0013   0.00    1.0
2021/01/01 02:33:30.000     41939.3876      6953.1456      -173.2586   2  34   0.0043   0.0031   0.0091  -0.0013  -0.0023   0.0021   0.00    1.0
2021/01/01 02:34:00.000     41939.3915      6953.1452      -173.2480   2  34   0.0037   0.0028   0.0090   0.0024  -0.0005   0.0011   0.00    1.0
2021/01/01 02:34:30.000     41939.3946      6953.1461      -173.2462   2  34   0.0036   0.0030   0.0092   0.0003  -0.0015   0.0019   0.00    1.0
2021/01/01 02:35:00.000     41939.3977      6953.1440      -173.2333   2  34   0.0034   0.0024   0.0090  -0.0018  -0.0025   0.0020   0.00    1.0
2021/01/01 02:35:30.000     41939.4004      6953.1448      -173.2289   2  34   0.0036   0.0035   0.0091  -0.0024  -0.0023   0.0003   0.00    1.0
2021/01/01 02:36:00.000     41939.4029      6953.1447      -173.2232   2  34   0.0033   0.0038   0.0090  -0.0017  -0.0017   0.0012   0.00    1.0
2021/01/01 02:36:30.000     41939.4036      6953.1431      -173.2150   2  34   0.0038   0.0035   0.0091   0.0006  -0.0024   0.0002   0.00    1.1
2021/01/01 02:37:00.000     41939.4041      6953.1446      -173.2109   2  34   0.0034   0.0016   0.0090   0.0017  -0.0025   0.0007   0.00    1.1
2021/01/01 02:37:30.000     41939.4037      6953.1440      -173.2104   2  34   0.0017   0.0031   0.0090   0.0019  -0.0023   0.0006   0.00    1.1
2021/01/01 02:38:00.000     41939.4022      6953.1450      -173.2091   2  36   0.0039   0.0022   0.0089  -0.0013  -0.0003  -0.0014   0.00    1.0
2021/01/01 02:38:30.000     41939.3986      6953.1453      -173.2141   2  36   0.0029   0.0000   0.0087  -0.0013  -0.0026   0.0009   0.00    1.0
2021/01/01 02:39:00.000     41939.3982      6953.1465      -173.2063   2  36   0.0037   0.0036   0.0088  -0.0013  -0.0027  -0.0006   0.00    1.0
2021/01/01 02:39:30.000     41939.3971      6953.1469      -173.2006   2  36   0.0022   0.0047   0.0088  -0.0015  -0.0016  -0.0011   0.00    1.0
2021/01/01 02:40:00.000     41939.3957      6953.1471      -173.1969   2  36   0.0035   0.0019   0.0087   0.0017  -0.0024  -0.0015   0.00    1.0
2021/01/01 02:40:30.000     41939.3939      6953.1463      -173.1899   2  36   0.0035   0.0026   0.0088  -0.0022  -0.0012   0.0008   0.00    1.0
2021/01/01 02:41:00.000     41939.3951      6953.1466      -173.1839   2  36   0.0034   0.0018   0.0088   0.0011  -0.0016  -0.0011   0.00    1.0
2021/01/01 02:41:30.000     41939.3948      6953.1464      -173.1850   2  36   0.0032   0.0036   0.0087   0.0004  -0.0023  -0.0006   0.00    1.0
2021/01/01 02:42:00.000     41939.3949      6953.1475      -173.1833   2  36   0.0034   0.0035   0.0087   0.0006  -0.0022   0.0014   0.00    1.0
2021/01/01 02:42:30.000     41939.3969      6953.1487      -173.1764   2  36   0.0036   0.0040   0.0087  -0.0019  -0.0021   0.0005   0.00    1.0
2021/01/01 02:43:00.000     41939.3979      6953.1482      -173.1762   2  36   0.0028   0.0013   0.0085   0.0021  -0.0032  -0.0012   0.00    1.0
2021/01/01 02:43:30.000     41939.3981      6953.1479      -173.1748   2  36   0.0024   0.0030   0.0087   0.0015  -0.0002   0.0006   0.00    1.0
2021/01/01 02:44:00.000     41939.3987      6953.1495      -173.1775   2  36   0.0034   0.0031   0.0088   0.0017  -0.0021   0.0018   0.00    1.0
2021/01/01 02:44:30.000     41939.3994      6953.1478      -173.1734   2  36   0.0033   0.0026   0.0086  -0.0010  -0.0025  -0.0018   0.00    1.0
2021/01/01 02:45:00.000     41939.4007      6953.1475      -173.1754   2  36   0.0037   0.0044   0.0086  -0.0022  -0.0022   0.0018   0.00    1.0
2021/01/01 02:45:30.000     41939.4006      6953.1465      -173.1739   2  36   0.0027   0.0025   0.0086   0.0020  -0.0015   0.0005   0.00    1.0
2021/01/01 02:46:00.000     41939.4008      6953.1478      -173.1702   2  36   0.0038   0.0041   0.0086   0.0013  -0.0010  -0.0006   0.00    1.0
2021/01/01 02:46:30.000     41939.4011      6953.1465      -173.1717   2  36   0.0034   0.0038   0.0086  -0.0010  -0.0016  -0.0018   0.00    1.0
2021/01/01 02:47:00.000     41939.4023      6953.1468      -173.1703   2  36   0.0025   0.0038   0.0085  -0.0009  -0.0011  -0.0013   0.00    1.0
2021/01/01 02:47:30.000     41939.4067      6953.1517      -173.2003   2  35   0.0032   0.0034   0.0090  -0.0014  -0.0024  -0.0005   0.00    1.0
2021/01/01 02:48:00.000     41939.4057      6953.1506      -173.1985   2  35   0.0029   0.0029   0.0089   0.0024  -0.0021  -0.0023   0.00    1.0
2021/01/01 02:48:30.000     41939.4067      6953.1514      -173.2003   2  35   0.0030   0.0000   0.0088   0.0019  -0.0032  -0.0012   0.00    1.0
2021/01/01 02:49:00.000     41939.4050      6953.1513      -173.2066   2  35   0.0025   0.0021   0.0088   0.0022  -0.0016  -0.0019   0.00    1.0
2021/01/01 02:49:30.000     41939.4066      6953.1548      -173.2041   2  34   0.0040   0.0048   0.0090  -0.0016  -0.0021  -0.0012   0.00    1.1
2021/01/01 02:50:00.000     41939.4067      6953.1571      -173.2153   2  34   0.0033   0.0041   0.0090  -0.0022  -0.0021   0.0016   0.00    1.1
2021/01/01 02:50:30.000     41939.4056      6953.1573      -173.2186   2  34   0.0035   0.0028   0.0090  -0.0017  -0.0024  -0.0011   0.00    1.1
2021/01/01 02:51:00.000     41939.4051      6953.1590      -173.2193   2  34   0.0034   0.0026   0.0091  -0.0019  -0.0021  -0.0016   0.00    1.1
2021/01/01 02:51:30.000     41939.4046      6953.1589      -173.2202   2  34   0.0034   0.0037   0.0090  -0.0018  -0.0022  -0.0008   0.00    1.1
2021/01/01 02:52:00.000     41939.4049      6953.1614      -173.2213   2  34   0.0034   0.0005   0.0090   0.0034  -0.0019  -0.0019   0.00    1.1
2021/01/01 02:52:30.000     41939.4035      6953.1620      -173.2190   2  34   0.0042   0.0028   0.0090  -0.0012  -0.0027   0.0012   0.00    1.1
2021/01/01 02:53:00.000     41939.4035      6953.1634      -173.2108   2  34   0.0035   0.0023   0.0088   0.0017  -0.0016  -0.0019   0.00    1.1
2021/01/01 02:53:30.000     41939.4032      6953.1614      -173.2126   2  34   0.0041   0.0020   0.0090   0.0019  -0.0027  -0.0019   0.00    1.1
2021/01/01 02:54:00.000     41939.4041      6953.1623      -173.2062   2  34   0.0037   0.0019   0.0090  -0.0013  -0.0021  -0.0012   0.00    1.1
2021/01/01 02:54:30.000     41939.4061      6953.1610      -173.2002   2  34   0.0026   0.0027   0.0088  -0.0012  -0.0024  -0.0016   0.00    1.1
2021/01/01 02:55:00.000     41939.4087      6953.1624      -173.1988   2  34   0.0038   0.0020   0.0090   0.0010  -0.0022  -0.0009   0.00    1.1
2021/01/01 02:55:30.000     41939.4099      6953.1616      -173.1930   2  34   0.0036   0.0028   0.0088   0.0012  -0.0024  -0.0011   0.00    1.1
2021/01/01 02:56:00.000     41939.4129      6953.1623      -173.1907   2  34   0.0036   0.0043   0.0089   0.0019  -0.0029  -0.0020   0.00    1.1
2021/01/01 02:56:30.000     41939.4147      6953.1648      -173.1829   2  34   0.0029   0.0027   0.0089   0.0008  -0.0027  -0.0015   0.00    1.1
2021/01/01 02:57:00.000     41939.4155      6953.1680      -173.1815   2  34   0.0036   0.0039   0.0088  -0.0014  -0.0016   0.0007   0.00    1.1
2021/01/01 02:57:30.000     41939.4177      6953.1692      -173.1793   2  34   0.0034   0.0030   0.0088  -0.0007  -0.0024  -0.0021   0.00    1.1
2021/01/01 02:58:00.000     41939.4203      6953.1717      -173.1741   2  34   0.0039   0.0035   0.0089  -0.0010  -0.0024  -0.0022   0.00    1.1
2021/01/01 02:58:30.000     41939.4216      6953.1730      -173.1701   2  34   0.0032   0.0031   0.0089   0.0022  -0.0012  -0.0016   0.00    1.1
2021/01/01 02:59:00.000     41939.4221      6953.1738      -173.1652   2  34   0.0027   0.0027   0.0090   0.0021  -0.0021   0.0012   0.00    1.1
2021/01/01 02:59:30.000     41939.4215      6953.1728      -173.1630   2  34   0.0040   0.0042   0.0088  -0.0030  -0.0018  -0.0017   0.00    1.1
2021/01/01 03:00:00.000     41939.4201      6953.1739      -173.1620   2  34   0.0027   0.0032   0.0088   0.0013  -0.0024  -0.0007   0.00    1.1
2021/01/01 03:00:30.000     41939.4190      6953.1746      -173.1659   2  34   0.0035   0.0026   0.0088  -0.0019  -0.0013   0.0007   0.00    1.1
2021/01/01 03:01:00.000     41939.4175      6953.1751      -173.1631   2  34   0.0028   0.0031   0.0087  -0.0007  -0.0022  -0.0023   0.00    1.1
2021/01/01 03:01:30.000     41939.4150      6953.1754      -173.1624   2  34   0.0026   0.0026   0.0088  -0.0010  -0.0024  -0.0019   0.00    1.1
2021/01/01 03:02:00.000     41939.4129      6953.1760      -173.1624   2  35   0.0029   0.0032   0.0087  -0.0018  -0.0016  -0.0023   0.00    1.0
2021/01/01 03:02:30.000     41939.4117      6953.1773      -173.1678   2  35   0.0036   0.0023   0.0087   0.0010  -0.0026  -0.0025   0.00    1.0
2021/01/01 03:03:00.000     41939.4120      6953.1796      -173.1649   2  35   0.0038   0.0035   0.0087   0.0003  -0.0012  -0.0023   0.00    1.0
2021/01/01 03:03:30.000     41939.4113      6953.1787      -173.1651   2  35   0.0029   0.0021   0.0088   0.0019  -0.0005   0.0005   0.00    1.0
2021/01/01 03:04:00.000     41939.4084      6953.1772      -173.1602   2  35   0.0026   0.0010   0.0085   0.0020  -0.0017  -0.0025   0.00    1.0
2021/01/01 03:04:30.000     41939.4082      6953.1768      -173.1565   2  35   0.0036   0.0031   0.0088   0.0008  -0.0014  -0.0020   0.00    1.0
2021/01/01 03:05:00.000     41939.4101      6953.1784      -173.1601   2  35   0.0036   0.0037   0.0087  -0.0012  -0.0012  -0.0016   0.00    1.0
2021/01/01 03:05:30.000     41939.4105      6953.1774      -173.1538   2  36   0.0036   0.0034   0.0088   0.0023  -0.0010  -0.0017   0.00    1.0
2021/01/01 03:06:00.000     41939.4124      6953.1779      -173.1551   2  36   0.0033   0.0025   0.0089   0.0019  -0.0008  -0.0006   0.00    1.0
2021/01/01 03:06:30.000     41939.4131      6953.1758      -173.1515   2  36   0.0022   0.0034   0.0085   0.0017  -0.0020  -0.0020   0.00    1.0
2021/01/01 03:07:00.000     41939.4138      6953.1770      -173.1561   2  36   0.0030   0.0033   0.0085   0.0007  -0.0018  -0.0020   0.00    1.0
2021/01/01 03:07:30.000     41939.4137      6953.1766      -173.1533   2  36   0.0033   0.0017   0.0085   0.0014  -0.0025  -0.0014   0.00    1.0
2021/01/01 03:08:00.000     41939.4128      6953.1762      -173.1557   2  36   0.0032   0.0034   0.0087  -0.0014  -0.0009  -0.0016   0.00    1.0
2021/01/01 03:08:30.000     41939.4131      6953.1778      -173.1568   2  36   0.0029   0.0028   0.0085   0.0012  -0.0031  -0.0019   0.00    1.0
2021/01/01 03:09:00.000     41939.4126      6953.1794      -173.1568   2  36   0.0035   0.0019   0.0086   0.0021  -0.0023  -0.0011   0.00    1.0
2021/01/01 03:09:30.000     41939.4124      6953.1802      -173.1570   2  36   0.0032   0.0031   0.0086   0.0013  -0.0008  -0.0017   0.00    1.0
2021/01/01 03:10:00.000     41939.4152      6953.1808      -173.1602   2  35   0.0036   0.0015   0.0088   0.0022  -0.0022  -0.0020   0.00    1.0
2021/01/01 03:10:30.000     41939.4160      6953.1823      -173.1584   2  35   0.0012   0.0022   0.0087  -0.0008  -0.0013  -0.0027   0.00    1.0
2021/01/01 03:11:00.000     41939.4157      6953.1839      -173.1542   2  35   0.0036   0.0020   0.0090  -0.0013  -0.0011   0.0018   0.00    1.0
2021/01/01 03:11:30.000     41939.4160      6953.1828      -173.1567   2  35   0.0034   0.0026   0.0089  -0.0016   0.0011  -0.0023   0.00    1.0
2021/01/01 03:12:00.000     41939.4147      6953.1834      -173.1557   2  35   0.0038   0.0035   0.0087   0.0024  -0.0016  -0.0021   0.00    1.0
2021/01/01 03:12:30.000     41939.4154      6953.1826      -173.1536   2  35   0.0028   0.0025   0.0087   0.0022  -0.0008  -0.0014   0.00    1.0
2021/01/01 03:13:00.000     41939.4131      6953.1818      -173.1504   2  35   0.0011   0.0028   0.0088  -0.0012  -0.0027  -0.0017   0.00    1.0
2021/01/01 03:13:30.000     41939.4137      6953.1827      -173.1521   2  35   0.0037   0.0026   0.0088   0.0014  -0.0024  -0.0012   0.00    1.0
2021/01/01 03:14:00.000     41939.4133      6953.1811      -173.1539   2  35   0.0036   0.0024   0.0086   0.0023  -0.0020  -0.0025   0.00    1.0
2021/01/01 03:14:30.000     41939.4115      6953.1791      -173.1524   2  35   0.0036   0.0027   0.0087   0.0020  -0.0013  -0.0019   0.00    1.1
2021/01/01 03:15:00.000     41939.4102      6953.1764      -173.1491   2  35   0.0030   0.0026   0.0086   0.0012  -0.0028  -0.0024   0.00    1.1
2021/01/01 03:15:30.000     41939.4088      6953.1770      -173.1486   2  35   0.0039   0.0030   0.0087  -0.0022  -0.0019  -0.0017   0.00    1.1
2021/01/01 03:16:00.000     41939.4096      6953.1764      -173.1540   2  35   0.0039   0.0024   0.0086   0.0015  -0.0016  -0.0026   0.00    1.1
2021/01/01 03:16:30.000     41939.4094      6953.1760      -173.1540   2  35   0.0031   0.0030   0.0088  -0.0023  -0.0009  -0.0022   0.00    1.1
2021/01/01 03:17:00.000     41939.4073      6953.1749      -173.1553   2  35   0.0026   0.0020   0.0087   0.0027  -0.0020  -0.0020   0.00    1.1
2021/01/01 03:17:30.000     41939.4051      6953.1743      -173.1575   2  35   0.0035   0.0030   0.0089  -0.0016  -0.0021   0.0004   0.00    1.1
2021/01/01 03:18:00.000     41939.4039      6953.1749      -173.1576   2  35   0.0036   0.0035   0.0089   0.0006   0.0007  -0.0017   0.00    1.1
2021/01/01 03:18:30.000     41939.4030      6953.1742      -173.1602   2  35   0.0037   0.0035   0.0087   0.0025  -0.0015  -0.0020   0.00    1.1
2021/01/01 03:19:00.000     41939.4005      6953.1734      -173.1634   2  35   0.0029   0.0000   0.0086   0.0016  -0.0027  -0.0013   0.00    1.1
2021/01/01 03:19:30.000     41939.3996      6953.1724      -173.1614   2  35   0.0038   0.0035   0.0087   0.0009  -0.0021  -0.0025   0.00    1.1
2021/01/01 03:20:00.000     41939.3961      6953.1734      -173.1602   2  35   0.0046   0.0019   0.0088   0.0026  -0.0021  -0.0021   0.00    1.1
2021/01/01 03:20:30.000     41939.3925      6953.1729      -173.1635   2  35   0.0037   0.0045   0.0087  -0.0019  -0.0019  -0.0027   0.00    1.1
2021/01/01 03:21:00.000     41939.3914      6953.1717      -173.1612   2  35   0.0033   0.0025   0.0088   0.0013   0.0016  -0.0019   0.00    1.1
2021/01/01 03:21:30.000     41939.3874      6953.1698      -173.1513   2  34   0.0027   0.0030   0.0093  -0.0010  -0.0012  -0.0027   0.00    1.1
2021/01/01 03:22:00.000     41939.3840      6953.1697      -173.1484   2  34   0.0036   0.0021   0.0092  -0.0007  -0.0020  -0.0027   0.00    1.1
2021/01/01 03:22:30.000     41939.3805      6953.1696      -173.1486   2  34   0.0022   0.0026   0.0092   0.0015  -0.0019  -0.0020   0.00    1.1
2021/01/01 03:23:00.000     41939.3787      6953.1682      -173.1526   2  34   0.0031   0.0014   0.0091   0.0020  -0.0032  -0.0016   0.00    1.1
2021/01/01 03:23:30.000     41939.3755      6953.1694      -173.1573   2  34   0.0040   0.0031   0.0093  -0.0008   0.0003  -0.0016   0.00    1.1
2021/01/01 03:24:00.000     41939.3743      6953.1711      -173.1628   2  34   0.0024   0.0029   0.0091   0.0007  -0.0030  -0.0026   0.00    1.1
2021/01/01 03:24:30.000     41939.3723      6953.1708      -173.1618   2  34   0.0038   0.0031   0.0092  -0.0004  -0.0022  -0.0024   0.00    1.1
2021/01/01 03:25:00.000     41939.3691      6953.1701      -173.1614   2  34   0.0037   0.0031   0.0093   0.0009  -0.0026  -0.0017   0.00    1.1
2021/01/01 03:25:30.000     41939.3685      6953.1690      -173.1584   2  34   0.0033   0.0036   0.0091   0.0015  -0.0021  -0.0030   0.00    1.1
2021/01/01 03:26:00.000     41939.3659      6953.1694      -173.1608   2  34   0.0038   0.0030   0.0092   0.0013  -0.0024  -0.0023   0.00    1.0
2021/01/01 03:26:30.000     41939.3652      6953.1692      -173.1642   2  34   0.0035   0.0031   0.0092  -0.0005  -0.0025  -0.0026   0.00    1.0
2021/01/01 03:27:00.000     41939.3623      6953.1686      -173.1616   2  34   0.0032   0.0031   0.0092   0.0009  -0.0025  -0.0025   0.00    1.0
2021/01/01 03:27:30.000     41939.3595      6953.1674      -173.1653   2  34   0.0035   0.0025   0.0092   0.0014  -0.0018  -0.0018   0.00    1.0
2021/01/01 03:28:00.000     41939.3572      6953.1663      -173.1648   2  34   0.0022   0.0026   0.0089  -0.0005  -0.0034  -0.0025   0.00    1.0
2021/01/01 03:28:30.000     41939.3563      6953.1657      -173.1621   2  33   0.0039   0.0031   0.0097  -0.0014  -0.0015  -0.0028   0.00    1.0
2021/01/01 03:29:00.000     41939.3532      6953.1652      -173.1671   2  33   0.0040   0.0034   0.0095   0.0007  -0.0027  -0.0030   0.00    1.0
2021/01/01 03:29:30.000     41939.3519      6953.1646      -173.1687   2  33   0.0038   0.0021   0.0096   0.0005  -0.0027  -0.0025   0.00    1.0
2021/01/01 03:30:00.000     41939.3505      6953.1617      -173.1632   2  33   0.0032   0.0036   0.0095  -0.0009  -0.0023  -0.0024   0.00    1.1
2021/01/01 03:30:30.000     41939.3503      6953.1618      -173.1675   2  33   0.0031   0.0024   0.0094   0.0005  -0.0030  -0.0032   0.00    1.1
2021/01/01 03:31:00.000     41939.3479      6953.1612      -173.1660   2  33   0.0039   0.0031   0.0095   0.0004  -0.0022  -0.0022   0.00    1.1
2021/01/01 03:31:30.000     41939.3484      6953.1603      -173.1698   2  34   0.0033   0.0030   0.0095   0.0020  -0.0026  -0.0027   0.00    1.0
2021/01/01 03:32:00.000     41939.3473      6953.1582      -173.1665   2  34   0.0032   0.0026   0.0093   0.0018  -0.0017  -0.0029   0.00    1.0
2021/01/01 03:32:30.000     41939.3450      6953.1570      -173.1680   2  34   0.0030   0.0031   0.0093  -0.0011  -0.0025  -0.0026   0.00    1.0
2021/01/01 03:33:00.000     41939.3461      6953.1548      -173.1697   2  34   0.0032   0.0029   0.0094  -0.0012  -0.0024  -0.0020   0.00    1.0
2021/01/01 03:33:30.000     41939.3446      6953.1550      -173.1724   2  33   0.0033   0.0017   0.0097  -0.0012  -0.0021  -0.0026   0.00    1.0
2021/01/01 03:34:00.000     41939.3434      6953.1530      -173.1759   2  33   0.0031   0.0035   0.0095   0.0005  -0.0019  -0.0027   0.00    1.0
2021/01/01 03:34:30.000     41939.3434      6953.1531      -173.1787   2  33   0.0032   0.0043   0.0097  -0.0024  -0.0021  -0.0022   0.00    1.0
2021/01/01 03:35:00.000     41939.3424      6953.1514      -173.1822   2  33   0.0028   0.0023   0.0096   0.0002  -0.0003  -0.0024   0.00    1.0
2021/01/01 03:35:30.000     41939.3399      6953.1505      -173.1825   2  33   0.0035   0.0029   0.0098  -0.0002   0.0006  -0.0026   0.00    1.0
2021/01/01 03:36:00.000     41939.3406      6953.1495      -173.1822   2  33   0.0031   0.0039   0.0096  -0.0020  -0.0017  -0.0028   0.00    1.0
2021/01/01 03:36:30.000     41939.3390      6953.1491      -173.1858   2  33   0.0039   0.0021   0.0096  -0.0006  -0.0018  -0.0025   0.00    1.0
2021/01/01 03:37:00.000     41939.3381      6953.1488      -173.1872   2  33   0.0034   0.0000   0.0096   0.0027  -0.0023  -0.0023   0.00    1.0
2021/01/01 03:37:30.000     41939.3377      6953.1483      -173.1830   2  33   0.0029   0.0036   0.0094  -0.0027  -0.0022  -0.0021   0.00    1.0
2021/01/01 03:38:00.000     41939.3340      6953.1491      -173.1850   2  33   0.0031   0.0027   0.0098  -0.0023   0.0007  -0.0022   0.00    1.0
