% program   : RTKLIB ver.2.4.3
% inp file  : ../example/hkws0010.21o
% inp file  : ../example/brdm0010.21p
% obs start : 2021/01/01 00:00:00.0 GPST (week2138 432000.0s)
% obs end   : 2021/01/01 23:59:30.0 GPST (week2138 518370.0s)
% pos mode  : Single
% elev mask : 15.0 deg
% ionos opt : Broadcast
% tropo opt : Saastamoinen
% ephemeris : Broadcast
% navi sys  : GPS GLONASS Galileo BDS
%
% (x/y/z-ecef=WGS84,Q=1:fix,2:float,3:sbas,4:dgps,5:single,6:ppp,ns=# of satellites)
%  GPST                      x-ecef(m)      y-ecef(m)      z-ecef(m)   Q  ns   sdx(m)   sdy(m)   sdz(m)  sdxy(m)  sdyz(m)  sdzx(m) age(s)  ratio
2021/01/01 00:00:00.000  -2430579.4040   5374285.6774   2418956.6284   5  28   1.5106   2.4794   1.8356  -1.5398   1.5633  -1.0832   0.00    0.0
2021/01/01 00:00:30.000  -2430579.4742   5374285.8206   2418956.8819   5  32   1.4950   2.2561   1.6652  -1.4673   1.4111  -1.0541   0.00    0.0
2021/01/01 00:01:00.000  -2430579.4200   5374285.5711   2418956.8930   5  32   1.4967   2.2561   1.6634  -1.4678   1.4109  -1.0534   0.00    0.0
2021/01/01 00:01:30.000  -2430579.3934   5374285.5019   2418956.9350   5  32   1.4982   2.2556   1.6614  -1.4686   1.4102  -1.0528   0.00    0.0
2021/01/01 00:02:00.000  -2430579.3368   5374285.5923   2418957.0142   5  32   1.4997   2.2550   1.6593  -1.4694   1.4094  -1.0522   0.00    0.0
2021/01/01 00:02:30.000  -2430579.3088   5374285.6798   2418957.0598   5  32   1.5012   2.2544   1.6572  -1.4701   1.4086  -1.0515   0.00    0.0
2021/01/01 00:03:00.000  -2430579.3315   5374285.7299   2418957.0667   5  32   1.5027   2.2538   1.6550  -1.4707   1.4076  -1.0508   0.00    0.0
2021/01/01 00:03:30.000  -2430579.3701   5374285.7910   2418957.0596   5  32   1.5042   2.2530   1.6528  -1.4714   1.4066  -1.0500   0.00    0.0
2021/01/01 00:04:00.000  -2430579.3400   5374285.6838   2418956.9901   5  32   1.5056   2.2523   1.6505  -1.4720   1.4055  -1.0492   0.00    0.0
2021/01/01 00:04:30.000  -2430579.2829   5374285.5509   2418956.8741   5  32   1.5071   2.2515   1.6482  -1.4725   1.4044  -1.0483   0.00    0.0
2021/01/01 00:05:00.000  -2430579.2242   5374285.3909   2418956.7069   5  32   1.5086   2.2512   1.6462  -1.4727   1.4038  -1.0471   0.00    0.0
2021/01/01 00:05:30.000  -2430579.3202   5374285.4434   2418956.7742   5  33   1.4910   2.2320   1.6437  -1.4497   1.4007  -1.0441   0.00    0.0
2021/01/01 00:06:00.000  -2430579.3838   5374285.5341   2418956.8676   5  33   1.4926   2.2332   1.6414  -1.4504   1.3998  -1.0432   0.00    0.0
2021/01/01 00:06:30.000  -2430579.4083   5374285.6037   2418956.9149   5  33   1.4941   2.2329   1.6389  -1.4512   1.3986  -1.0422   0.00    0.0
2021/01/01 00:07:00.000  -2430579.4446   5374285.6187   2418956.9225   5  33   1.4957   2.2325   1.6364  -1.4519   1.3974  -1.0412   0.00    0.0
2021/01/01 00:07:30.000  -2430579.4336   5374285.7354   2418956.8951   5  33   1.4972   2.2320   1.6339  -1.4526   1.3960  -1.0401   0.00    0.0
2021/01/01 00:08:00.000  -2430579.3448   5374285.7705   2418956.8906   5  33   1.4988   2.2316   1.6313  -1.4532   1.3946  -1.0390   0.00    0.0
2021/01/01 00:08:30.000  -2430579.3012   5374285.7477   2418956.8506   5  33   1.5003   2.2310   1.6287  -1.4538   1.3931  -1.0379   0.00    0.0
2021/01/01 00:09:00.000  -2430579.3668   5374285.7990   2418956.8886   5  33   1.5018   2.2304   1.6261  -1.4544   1.3915  -1.0367   0.00    0.0
2021/01/01 00:09:30.000  -2430579.4393   5374285.8149   2418956.8425   5  33   1.5033   2.2298   1.6234  -1.4549   1.3899  -1.0354   0.00    0.0
2021/01/01 00:10:00.000  -2430579.4539   5374285.7231   2418956.7754   5  33   1.5048   2.2291   1.6207  -1.4554   1.3882  -1.0341   0.00    0.0
2021/01/01 00:10:30.000  -2430579.3732   5374285.6524   2418956.7441   5  33   1.5063   2.2285   1.6179  -1.4558   1.3865  -1.0327   0.00    0.0
2021/01/01 00:11:00.000  -2430579.2053   5374285.5278   2418956.7559   5  33   1.5078   2.2277   1.6151  -1.4563   1.3847  -1.0313   0.00    0.0
2021/01/01 00:11:30.000  -2430579.1057   5374285.5150   2418956.8450   5  33   1.5093   2.2269   1.6123  -1.4567   1.3828  -1.0298   0.00    0.0
2021/01/01 00:12:00.000  -2430579.1239   5374285.5148   2418957.0220   5  33   1.5108   2.2261   1.6095  -1.4570   1.3808  -1.0283   0.00    0.0
2021/01/01 00:12:30.000  -2430579.1840   5374285.5973   2418957.1288   5  33   1.5122   2.2252   1.6066  -1.4574   1.3788  -1.0268   0.00    0.0
2021/01/01 00:13:00.000  -2430579.2611   5374285.7329   2418957.0953   5  33   1.5137   2.2243   1.6037  -1.4577   1.3768  -1.0252   0.00    0.0
2021/01/01 00:13:30.000  -2430579.4438   5374285.7352   2418956.9661   5  33   1.5154   2.2233   1.6008  -1.4579   1.3747  -1.0233   0.00    0.0
2021/01/01 00:14:00.000  -2430579.6127   5374285.7082   2418956.9812   5  33   1.5169   2.2223   1.5978  -1.4582   1.3725  -1.0216   0.00    0.0
2021/01/01 00:14:30.000  -2430579.6110   5374285.6846   2418957.0565   5  33   1.5184   2.2217   1.5949  -1.4585   1.3701  -1.0198   0.00    0.0
2021/01/01 00:15:00.000  -2430579.6513   5374285.8018   2418957.1752   5  33   1.5198   2.2207   1.5918  -1.4587   1.3678  -1.0180   0.00    0.0
2021/01/01 00:30:30.000  -2430579.6649   5374285.7615   2418957.1750   5  33   1.4663   2.1924   1.4641  -1.3667   1.2695  -0.9636   0.00    0.0
2021/01/01 00:31:00.000  -2430579.6743   5374285.8250   2418957.1340   5  33   1.4676   2.1923   1.4617  -1.3674   1.2673  -0.9618   0.00    0.0
2021/01/01 00:31:30.000  -2430579.7071   5374285.8891   2418957.1071   5  33   1.4699   2.1926   1.4621  -1.3687   1.2665  -0.9626   0.00    0.0
2021/01/01 00:32:00.000  -2430579.6934   5374285.9110   2418957.0488   5  33   1.4715   2.1930   1.4601  -1.3696   1.2648  -0.9612   0.00    0.0
2021/01/01 00:32:30.000  -2430579.7430   5374285.9836   2418957.0849   5  33   1.4729   2.1930   1.4580  -1.3703   1.2627  -0.9596   0.00    0.0
2021/01/01 00:33:00.000  -2430579.7972   5374286.0982   2418957.1530   5  34   1.4719   2.1821   1.3817  -1.3640   1.2201  -0.9371   0.00    0.0
2021/01/01 00:33:30.000  -2430579.7781   5374285.9916   2418957.1119   5  34   1.4736   2.1825   1.3804  -1.3650   1.2190  -0.9364   0.00    0.0
2021/01/01 00:34:00.000  -2430579.6970   5374285.8424   2418957.1431   5  34   1.4752   2.1829   1.3791  -1.3661   1.2179  -0.9356   0.00    0.0
2021/01/01 00:34:30.000  -2430579.6155   5374285.7094   2418957.1637   5  34   1.4769   2.1833   1.3780  -1.3672   1.2165  -0.9346   0.00    0.0
2021/01/01 00:35:00.000  -2430579.6073   5374285.6114   2418957.1547   5  35   1.3373   2.0615   1.3609  -1.1907   1.1521  -0.8607   0.00    0.0
2021/01/01 00:35:30.000  -2430579.6156   5374285.6009   2418957.1885   5  35   1.3389   2.0619   1.3600  -1.1918   1.1515  -0.8605   0.00    0.0
2021/01/01 00:36:00.000  -2430579.4889   5374285.5773   2418957.2073   5  35   1.3405   2.0624   1.3590  -1.1928   1.1508  -0.8603   0.00    0.0
2021/01/01 00:36:30.000  -2430579.5504   5374285.6604   2418957.3259   5  35   1.3421   2.0628   1.3580  -1.1939   1.1502  -0.8601   0.00    0.0
2021/01/01 00:37:00.000  -2430579.6114   5374285.8118   2418957.4330   5  35   1.3438   2.0632   1.3570  -1.1950   1.1495  -0.8598   0.00    0.0
2021/01/01 00:37:30.000  -2430579.6944   5374285.9949   2418957.4659   5  35   1.3454   2.0636   1.3561  -1.1960   1.1488  -0.8595   0.00    0.0
2021/01/01 00:38:00.000  -2430579.6466   5374285.9874   2418957.3892   5  35   1.3470   2.0640   1.3551  -1.1971   1.1481  -0.8592   0.00    0.0
2021/01/01 00:38:30.000  -2430579.6858   5374286.3391   2418957.3783   5  34   1.3497   2.1960   1.3554  -1.2146   1.1664  -0.8607   0.00    0.0
2021/01/01 00:39:00.000  -2430579.6668   5374286.2647   2418957.3891   5  34   1.3514   2.1973   1.3545  -1.2163   1.1664  -0.8606   0.00    0.0
2021/01/01 00:39:30.000  -2430579.6538   5374286.1871   2418957.4483   5  34   1.3531   2.1986   1.3536  -1.2179   1.1665  -0.8604   0.00    0.0
2021/01/01 00:40:00.000  -2430579.5927   5374286.1604   2418957.4806   5  34   1.3549   2.1999   1.3528  -1.2197   1.1664  -0.8600   0.00    0.0
2021/01/01 00:40:30.000  -2430579.6042   5374286.0774   2418957.5363   5  34   1.3566   2.2011   1.3519  -1.2213   1.1664  -0.8598   0.00    0.0
2021/01/01 00:41:00.000  -2430579.7372   5374286.2167   2418957.5937   5  34   1.3584   2.2024   1.3511  -1.2230   1.1664  -0.8595   0.00    0.0
2021/01/01 00:41:30.000  -2430579.8108   5374286.3333   2418957.6166   5  34   1.3603   2.2037   1.3502  -1.2248   1.1663  -0.8591   0.00    0.0
2021/01/01 00:42:00.000  -2430579.7948   5374286.3501   2418957.5715   5  34   1.3620   2.2049   1.3494  -1.2264   1.1662  -0.8588   0.00    0.0
2021/01/01 00:42:30.000  -2430579.7602   5374286.3204   2418957.5130   5  34   1.3638   2.2061   1.3486  -1.2281   1.1661  -0.8585   0.00    0.0
2021/01/01 00:43:00.000  -2430579.7305   5374286.1965   2418957.5143   5  34   1.3655   2.2073   1.3477  -1.2297   1.1660  -0.8582   0.00    0.0
2021/01/01 00:43:30.000  -2430579.7068   5374286.0352   2418957.4581   5  34   1.3673   2.2084   1.3469  -1.2313   1.1659  -0.8578   0.00    0.0
2021/01/01 00:44:00.000  -2430579.7681   5374286.0246   2418957.3917   5  34   1.3690   2.2096   1.3460  -1.2329   1.1658  -0.8575   0.00    0.0
2021/01/01 00:44:30.000  -2430579.8684   5374286.1965   2418957.3569   5  34   1.3708   2.2107   1.3452  -1.2346   1.1657  -0.8571   0.00    0.0
2021/01/01 00:45:00.000  -2430579.8894   5374286.2720   2418957.3807   5  34   1.3732   2.2119   1.3445  -1.2365   1.1656  -0.8572   0.00    0.0
2021/01/01 00:45:30.000  -2430579.9628   5374286.3638   2418957.4950   5  34   1.3750   2.2131   1.3437  -1.2381   1.1655  -0.8569   0.00    0.0
2021/01/01 00:46:00.000  -2430579.9610   5374286.3647   2418957.5777   5  34   1.3768   2.2142   1.3429  -1.2397   1.1653  -0.8565   0.00    0.0
2021/01/01 00:46:30.000  -2430579.9208   5374285.5735   2418957.3156   5  33   1.3801   2.3581   1.3978  -1.2205   1.2936  -0.8415   0.00    0.0
2021/01/01 00:47:00.000  -2430579.9300   5374285.5108   2418957.3609   5  33   1.3819   2.3591   1.3975  -1.2227   1.2939  -0.8415   0.00    0.0
2021/01/01 00:47:30.000  -2430579.8830   5374285.5376   2418957.3871   5  32   1.4540   2.4468   1.6501  -1.3375   1.4971  -1.0491   0.00    0.0
2021/01/01 00:48:00.000  -2430579.7349   5374285.4257   2418957.2475   5  32   1.4561   2.4490   1.6500  -1.3406   1.4988  -1.0496   0.00    0.0
2021/01/01 00:48:30.000  -2430579.6650   5374285.4400   2418957.2045   5  32   1.4581   2.4512   1.6499  -1.3436   1.5004  -1.0501   0.00    0.0
2021/01/01 00:49:00.000  -2430579.6512   5374285.5879   2418957.2095   5  32   1.4617   2.4540   1.6507  -1.3481   1.5030  -1.0524   0.00    0.0
2021/01/01 00:49:30.000  -2430579.7251   5374285.6936   2418957.2692   5  32   1.4639   2.4561   1.6506  -1.3512   1.5047  -1.0530   0.00    0.0
2021/01/01 00:50:00.000  -2430579.8401   5374285.7338   2418957.2941   5  32   1.4661   2.4583   1.6505  -1.3543   1.5062  -1.0536   0.00    0.0
2021/01/01 00:50:30.000  -2430579.9089   5374285.7233   2418957.3612   5  33   1.4506   2.4313   1.6413  -1.3886   1.4859  -1.0727   0.00    0.0
2021/01/01 00:51:00.000  -2430579.9667   5374285.7260   2418957.3653   5  33   1.4528   2.4334   1.6409  -1.3915   1.4871  -1.0734   0.00    0.0
2021/01/01 00:51:30.000  -2430579.9588   5374285.7562   2418957.3217   5  33   1.4550   2.4354   1.6405  -1.3944   1.4883  -1.0740   0.00    0.0
2021/01/01 00:52:00.000  -2430579.8959   5374285.7691   2418957.2567   5  33   1.4573   2.4375   1.6401  -1.3973   1.4894  -1.0746   0.00    0.0
2021/01/01 00:52:30.000  -2430579.8887   5374285.7695   2418957.2255   5  33   1.4595   2.4394   1.6396  -1.4001   1.4905  -1.0752   0.00    0.0
2021/01/01 00:53:00.000  -2430579.8923   5374285.7007   2418957.1858   5  33   1.4617   2.4414   1.6392  -1.4030   1.4915  -1.0758   0.00    0.0
2021/01/01 00:53:30.000  -2430579.8504   5374285.5825   2418957.0946   5  33   1.4639   2.4433   1.6386  -1.4058   1.4924  -1.0763   0.00    0.0
2021/01/01 00:54:00.000  -2430579.8540   5374285.4662   2418957.0547   5  33   1.4665   2.4452   1.6381  -1.4087   1.4933  -1.0766   0.00    0.0
2021/01/01 00:54:30.000  -2430579.9084   5374285.4481   2418957.1598   5  33   1.4687   2.4471   1.6376  -1.4114   1.4941  -1.0770   0.00    0.0
2021/01/01 00:55:00.000  -2430579.8581   5374285.5274   2418957.2594   5  33   1.4709   2.4489   1.6370  -1.4142   1.4949  -1.0774   0.00    0.0
2021/01/01 00:55:30.000  -2430579.8263   5374285.6479   2418957.4197   5  33   1.4731   2.4507   1.6364  -1.4169   1.4957  -1.0778   0.00    0.0
2021/01/01 00:56:00.000  -2430579.5095   5374285.3034   2418957.3469   5  34   1.3472   2.3053   1.5907  -1.2296   1.3858  -0.9661   0.00    0.0
2021/01/01 00:56:30.000  -2430579.4733   5374285.4304   2418957.4169   5  34   1.3491   2.3071   1.5904  -1.2322   1.3869  -0.9667   0.00    0.0
2021/01/01 00:57:00.000  -2430579.5043   5374285.4928   2418957.4905   5  34   1.3510   2.3088   1.5900  -1.2347   1.3880  -0.9673   0.00    0.0
2021/01/01 00:57:30.000  -2430579.5542   5374285.5627   2418957.5195   5  34   1.3529   2.3105   1.5897  -1.2373   1.3891  -0.9678   0.00    0.0
2021/01/01 00:58:00.000  -2430579.5907   5374285.6162   2418957.5933   5  34   1.3548   2.3122   1.5893  -1.2398   1.3901  -0.9683   0.00    0.0
2021/01/01 00:58:30.000  -2430579.6087   5374285.6259   2418957.5522   5  34   1.3566   2.3139   1.5889  -1.2424   1.3911  -0.9688   0.00    0.0
2021/01/01 00:59:00.000  -2430579.5917   5374285.5794   2418957.4480   5  34   1.3585   2.3155   1.5884  -1.2449   1.3920  -0.9693   0.00    0.0
2021/01/01 00:59:30.000  -2430579.6631   5374285.7887   2418957.4681   5  34   1.3604   2.3172   1.5880  -1.2474   1.3930  -0.9698   0.00    0.0
2021/01/01 01:00:00.000  -2430579.7672   5374285.9939   2418957.5096   5  34   1.3623   2.3188   1.5875  -1.2499   1.3938  -0.9702   0.00    0.0
2021/01/01 01:00:30.000  -2430579.9679   5374286.0827   2418957.6150   5  34   1.3656   2.3218   1.5871  -1.2543   1.3951  -0.9711   0.00    0.0
2021/01/01 01:01:00.000  -2430580.0504   5374286.0731   2418957.7165   5  34   1.3677   2.3235   1.5866  -1.2570   1.3959  -0.9715   0.00    0.0
2021/01/01 01:01:30.000  -2430580.0591   5374286.0111   2418957.7320   5  34   1.3697   2.3253   1.5860  -1.2597   1.3968  -0.9719   0.00    0.0
2021/01/01 01:02:00.000  -2430579.9700   5374285.7789   2418957.6080   5  33   1.3727   2.4098   1.5856  -1.2495   1.4005  -0.9720   0.00    0.0
2021/01/01 01:02:30.000  -2430579.8868   5374285.7995   2418957.6012   5  33   1.3763   2.4137   1.5855  -1.2549   1.4031  -0.9736   0.00    0.0
2021/01/01 01:03:00.000  -2430579.7765   5374285.8229   2418957.5745   5  33   1.3785   2.4159   1.5850  -1.2581   1.4046  -0.9741   0.00    0.0
2021/01/01 01:03:30.000  -2430579.7470   5374286.0333   2418957.5566   5  32   1.3817   2.7908   1.5873  -1.2890   1.4520  -0.9770   0.00    0.0
2021/01/01 01:04:00.000  -2430579.8139   5374286.0874   2418957.5904   5  32   1.3840   2.7938   1.5869  -1.2941   1.4545  -0.9776   0.00    0.0
2021/01/01 01:04:30.000  -2430579.8057   5374286.1118   2418957.5499   5  32   1.3864   2.7966   1.5865  -1.2992   1.4569  -0.9783   0.00    0.0
2021/01/01 01:05:00.000  -2430579.8920   5374286.2488   2418957.5410   5  32   1.3888   2.7995   1.5861  -1.3043   1.4593  -0.9789   0.00    0.0
2021/01/01 01:05:30.000  -2430579.9603   5374286.5075   2418957.5714   5  32   1.3911   2.8023   1.5857  -1.3094   1.4616  -0.9796   0.00    0.0
2021/01/01 01:06:00.000  -2430580.0009   5374286.5630   2418957.5754   5  32   1.3935   2.8052   1.5853  -1.3144   1.4639  -0.9802   0.00    0.0
2021/01/01 01:06:30.000  -2430580.0555   5374286.5780   2418957.5222   5  32   1.3959   2.8080   1.5848  -1.3194   1.4662  -0.9808   0.00    0.0
2021/01/01 01:07:00.000  -2430580.0734   5374286.4774   2418957.4721   5  32   1.3983   2.8108   1.5844  -1.3244   1.4684  -0.9814   0.00    0.0
2021/01/01 01:07:30.000  -2430580.0416   5374286.3001   2418957.4558   5  32   1.4008   2.8135   1.5839  -1.3293   1.4706  -0.9820   0.00    0.0
2021/01/01 01:08:00.000  -2430579.9236   5374286.0803   2418957.3109   5  32   1.4032   2.8163   1.5834  -1.3343   1.4728  -0.9825   0.00    0.0
2021/01/01 01:08:30.000  -2430579.8310   5374285.9312   2418957.2473   5  32   1.4056   2.8190   1.5829  -1.3392   1.4749  -0.9831   0.00    0.0
2021/01/01 01:09:00.000  -2430579.8452   5374285.8636   2418957.3697   5  32   1.4080   2.8217   1.5824  -1.3441   1.4770  -0.9836   0.00    0.0
2021/01/01 01:09:30.000  -2430579.8786   5374285.8906   2418957.5144   5  32   1.4105   2.8244   1.5819  -1.3490   1.4790  -0.9842   0.00    0.0
2021/01/01 01:10:00.000  -2430579.9010   5374286.0075   2418957.6817   5  32   1.4129   2.8271   1.5814  -1.3538   1.4810  -0.9847   0.00    0.0
2021/01/01 01:10:30.000  -2430579.9088   5374286.1590   2418957.8111   5  32   1.4154   2.8297   1.5809  -1.3587   1.4829  -0.9852   0.00    0.0
2021/01/01 01:11:00.000  -2430579.8202   5374286.0807   2418957.7420   5  32   1.4178   2.8324   1.5803  -1.3635   1.4848  -0.9856   0.00    0.0
2021/01/01 01:11:30.000  -2430579.7616   5374286.0420   2418957.5941   5  32   1.4203   2.8350   1.5798  -1.3682   1.4867  -0.9861   0.00    0.0
2021/01/01 01:12:00.000  -2430579.7612   5374286.1226   2418957.4669   5  32   1.4228   2.8375   1.5792  -1.3730   1.4885  -0.9866   0.00    0.0
2021/01/01 01:12:30.000  -2430579.8431   5374286.3483   2418957.5326   5  33   1.4131   2.7052   1.4392  -1.3181   1.2884  -0.9239   0.00    0.0
2021/01/01 01:13:00.000  -2430579.8681   5374286.3213   2418957.5290   5  33   1.4157   2.7082   1.4390  -1.3232   1.2910  -0.9246   0.00    0.0
2021/01/01 01:13:30.000  -2430579.9061   5374286.3371   2418957.5003   5  33   1.4182   2.7111   1.4388  -1.3283   1.2936  -0.9253   0.00    0.0
2021/01/01 01:14:00.000  -2430579.9395   5374286.3090   2418957.5236   5  33   1.4208   2.7140   1.4386  -1.3333   1.2961  -0.9259   0.00    0.0
2021/01/01 01:14:30.000  -2430579.9410   5374286.2050   2418957.6367   5  33   1.4234   2.7170   1.4384  -1.3383   1.2986  -0.9266   0.00    0.0
2021/01/01 01:15:00.000  -2430580.0510   5374286.1846   2418957.8182   5  33   1.4259   2.7199   1.4382  -1.3433   1.3010  -0.9272   0.00    0.0
2021/01/01 01:15:30.000  -2430580.1513   5374286.7099   2418958.2550   5  34   1.4273   2.6256   1.3235  -1.3322   1.1374  -0.9095   0.00    0.0
2021/01/01 01:16:00.000  -2430580.0624   5374286.8844   2418958.2454   5  35   1.3195   2.6071   1.2609  -1.2664   1.0795  -0.7789   0.00    0.0
2021/01/01 01:16:30.000  -2430580.1473   5374287.0870   2418958.4672   5  34   1.3237   2.6105   1.2883  -1.2729   1.0900  -0.7918   0.00    0.0
2021/01/01 01:17:00.000  -2430580.2289   5374287.2650   2418958.4777   5  34   1.3260   2.6134   1.2891  -1.2778   1.0936  -0.7932   0.00    0.0
2021/01/01 01:17:30.000  -2430580.2649   5374287.4016   2418958.5658   5  34   1.3283   2.6162   1.2900  -1.2827   1.0971  -0.7946   0.00    0.0
2021/01/01 01:18:00.000  -2430580.2330   5374287.4437   2418958.5321   5  34   1.3306   2.6190   1.2908  -1.2875   1.1006  -0.7960   0.00    0.0
2021/01/01 01:18:30.000  -2430580.2592   5374287.4544   2418958.5052   5  34   1.3330   2.6219   1.2916  -1.2924   1.1041  -0.7974   0.00    0.0
2021/01/01 01:19:00.000  -2430580.2441   5374287.4062   2418958.4553   5  34   1.3353   2.6247   1.2925  -1.2972   1.1076  -0.7988   0.00    0.0
2021/01/01 01:19:30.000  -2430580.2140   5374287.3386   2418958.4451   5  34   1.3377   2.6276   1.2933  -1.3020   1.1110  -0.8002   0.00    0.0
2021/01/01 01:20:00.000  -2430580.2530   5374287.3720   2418958.4666   5  34   1.3400   2.6304   1.2942  -1.3068   1.1145  -0.8016   0.00    0.0
2021/01/01 01:20:30.000  -2430580.2216   5374287.2881   2418958.4797   5  34   1.3424   2.6333   1.2950  -1.3116   1.1179  -0.8030   0.00    0.0
2021/01/01 01:21:00.000  -2430580.1790   5374287.2516   2418958.4110   5  34   1.3448   2.6362   1.2959  -1.3164   1.1213  -0.8044   0.00    0.0
2021/01/01 01:21:30.000  -2430580.1730   5374287.2123   2418958.4117   5  34   1.3471   2.6391   1.2967  -1.3211   1.1247  -0.8057   0.00    0.0
2021/01/01 01:22:00.000  -2430580.2379   5374287.2002   2418958.4906   5  34   1.3495   2.6419   1.2975  -1.3258   1.1280  -0.8071   0.00    0.0
2021/01/01 01:22:30.000  -2430580.2994   5374287.1758   2418958.6257   5  34   1.3519   2.6448   1.2984  -1.3306   1.1313  -0.8085   0.00    0.0
2021/01/01 01:23:00.000  -2430580.2714   5374287.2970   2418958.6628   5  34   1.3543   2.6477   1.2992  -1.3353   1.1346  -0.8099   0.00    0.0
2021/01/01 01:23:30.000  -2430580.2496   5374287.4756   2418958.6625   5  34   1.3567   2.6506   1.3001  -1.3400   1.1379  -0.8113   0.00    0.0
2021/01/01 01:24:00.000  -2430580.2424   5374287.5248   2418958.7024   5  34   1.3591   2.6535   1.3009  -1.3446   1.1412  -0.8126   0.00    0.0
2021/01/01 01:24:30.000  -2430580.1590   5374287.4906   2418958.6294   5  34   1.3615   2.6564   1.3018  -1.3493   1.1444  -0.8140   0.00    0.0
2021/01/01 01:25:00.000  -2430580.1811   5374287.4522   2418958.6493   5  34   1.3639   2.6592   1.3026  -1.3539   1.1476  -0.8154   0.00    0.0
2021/01/01 01:25:30.000  -2430580.1932   5374287.4197   2418958.6092   5  34   1.3663   2.6621   1.3035  -1.3585   1.1508  -0.8167   0.00    0.0
2021/01/01 01:26:00.000  -2430580.2424   5374287.3746   2418958.4947   5  34   1.3687   2.6650   1.3043  -1.3631   1.1540  -0.8181   0.00    0.0
2021/01/01 01:26:30.000  -2430580.2955   5374287.3281   2418958.4192   5  34   1.3712   2.6679   1.3052  -1.3677   1.1572  -0.8194   0.00    0.0
2021/01/01 01:27:00.000  -2430580.3817   5374287.3653   2418958.4159   5  34   1.3736   2.6708   1.3061  -1.3722   1.1603  -0.8208   0.00    0.0
2021/01/01 01:27:30.000  -2430580.3631   5374287.3925   2418958.4483   5  34   1.3760   2.6736   1.3069  -1.3767   1.1634  -0.8221   0.00    0.0
2021/01/01 01:28:00.000  -2430580.2985   5374287.4334   2418958.4623   5  33   1.4057   2.7360   1.4100  -1.4368   1.2884  -0.9074   0.00    0.0
2021/01/01 01:28:30.000  -2430580.1556   5374287.3514   2418958.4128   5  33   1.4084   2.7401   1.4111  -1.4419   1.2925  -0.9091   0.00    0.0
2021/01/01 01:29:00.000  -2430580.0008   5374287.2313   2418958.3670   5  33   1.4110   2.7441   1.4122  -1.4470   1.2966  -0.9109   0.00    0.0
2021/01/01 01:29:30.000  -2430579.8866   5374287.0575   2418958.3400   5  33   1.4137   2.7481   1.4133  -1.4521   1.3007  -0.9126   0.00    0.0
2021/01/01 01:30:00.000  -2430579.8529   5374286.9634   2418958.3714   5  33   1.4163   2.7520   1.4144  -1.4572   1.3047  -0.9143   0.00    0.0
2021/01/01 01:30:30.000  -2430580.0164   5374287.4322   2418958.7653   5  33   1.4190   2.7560   1.4155  -1.4622   1.3087  -0.9160   0.00    0.0
2021/01/01 01:31:00.000  -2430580.0298   5374287.4889   2418958.7712   5  33   1.4216   2.7600   1.4166  -1.4673   1.3127  -0.9177   0.00    0.0
2021/01/01 01:31:30.000  -2430580.0716   5374287.3831   2418958.5816   5  34   1.4224   2.7591   1.3851  -1.4681   1.2976  -0.9072   0.00    0.0
2021/01/01 01:32:00.000  -2430580.1833   5374287.4770   2418958.7012   5  34   1.4251   2.7632   1.3865  -1.4732   1.3020  -0.9092   0.00    0.0
2021/01/01 01:32:30.000  -2430580.2546   5374287.6967   2418958.8122   5  34   1.4278   2.7674   1.3879  -1.4783   1.3064  -0.9111   0.00    0.0
2021/01/01 01:33:00.000  -2430580.2512   5374287.8059   2418958.8928   5  34   1.4306   2.7715   1.3892  -1.4834   1.3107  -0.9131   0.00    0.0
2021/01/01 01:33:30.000  -2430580.2827   5374287.9278   2418959.0205   5  34   1.4333   2.7756   1.3906  -1.4885   1.3150  -0.9150   0.00    0.0
2021/01/01 01:34:00.000  -2430580.3199   5374287.9723   2418959.0830   5  34   1.4360   2.7797   1.3920  -1.4935   1.3193  -0.9169   0.00    0.0
2021/01/01 01:34:30.000  -2430580.3292   5374287.8576   2418959.0897   5  34   1.4387   2.7838   1.3933  -1.4984   1.3235  -0.9188   0.00    0.0
2021/01/01 01:35:00.000  -2430580.3142   5374287.7473   2418959.1103   5  34   1.4414   2.7879   1.3947  -1.5034   1.3277  -0.9207   0.00    0.0
2021/01/01 01:35:30.000  -2430580.2864   5374287.6453   2418959.0353   5  34   1.4441   2.7919   1.3960  -1.5083   1.3318  -0.9226   0.00    0.0
2021/01/01 01:36:00.000  -2430580.1902   5374287.4729   2418958.8787   5  34   1.4468   2.7959   1.3973  -1.5131   1.3359  -0.9245   0.00    0.0
2021/01/01 01:36:30.000  -2430580.1452   5374287.3614   2418958.8464   5  34   1.4495   2.7999   1.3987  -1.5179   1.3399  -0.9263   0.00    0.0
2021/01/01 01:37:00.000  -2430580.1818   5374287.4332   2418958.8381   5  34   1.4522   2.8039   1.4000  -1.5227   1.3440  -0.9282   0.00    0.0
2021/01/01 01:37:30.000  -2430580.1728   5374287.4855   2418958.8293   5  34   1.4548   2.8078   1.4013  -1.5275   1.3479  -0.9300   0.00    0.0
2021/01/01 01:38:00.000  -2430580.2338   5374287.6545   2418958.8522   5  34   1.4575   2.8117   1.4026  -1.5322   1.3518  -0.9318   0.00    0.0
2021/01/01 01:38:30.000  -2430580.3298   5374287.9610   2418958.9373   5  34   1.4602   2.8156   1.4039  -1.5368   1.3557  -0.9335   0.00    0.0
2021/01/01 01:39:00.000  -2430580.4244   5374288.1559   2418959.0076   5  34   1.4628   2.8194   1.4052  -1.5415   1.3596  -0.9353   0.00    0.0
2021/01/01 01:39:30.000  -2430580.4776   5374288.2350   2418959.0609   5  34   1.4655   2.8233   1.4065  -1.5460   1.3633  -0.9370   0.00    0.0
2021/01/01 01:40:00.000  -2430580.5002   5374288.2381   2418959.0930   5  34   1.4681   2.8270   1.4078  -1.5506   1.3671  -0.9388   0.00    0.0
2021/01/01 01:40:30.000  -2430580.4217   5374288.1188   2418959.0516   5  34   1.4707   2.8308   1.4091  -1.5551   1.3708  -0.9405   0.00    0.0
2021/01/01 01:41:00.000  -2430580.3873   5374287.9937   2418959.0392   5  34   1.4733   2.8345   1.4103  -1.5595   1.3744  -0.9421   0.00    0.0
2021/01/01 01:41:30.000  -2430580.3017   5374287.8418   2418959.0127   5  34   1.4759   2.8382   1.4116  -1.5639   1.3780  -0.9438   0.00    0.0
2021/01/01 01:42:00.000  -2430580.2471   5374287.7296   2418959.0385   5  34   1.4785   2.8418   1.4128  -1.5683   1.3816  -0.9454   0.00    0.0
2021/01/01 01:42:30.000  -2430580.2328   5374287.7136   2418959.0412   5  34   1.4810   2.8454   1.4141  -1.5726   1.3851  -0.9470   0.00    0.0
2021/01/01 01:43:00.000  -2430580.2352   5374287.7830   2418959.0518   5  34   1.4836   2.8489   1.4153  -1.5768   1.3885  -0.9486   0.00    0.0
2021/01/01 01:43:30.000  -2430580.3154   5374287.9507   2418959.1130   5  34   1.4861   2.8525   1.4165  -1.5810   1.3919  -0.9502   0.00    0.0
2021/01/01 01:44:00.000  -2430580.3405   5374288.0088   2418959.0740   5  34   1.4886   2.8559   1.4177  -1.5852   1.3953  -0.9517   0.00    0.0
2021/01/01 01:44:30.000  -2430580.4335   5374288.1906   2418959.1024   5  34   1.4912   2.8593   1.4189  -1.5893   1.3986  -0.9532   0.00    0.0
2021/01/01 01:45:00.000  -2430580.4420   5374288.2502   2418958.9543   5  35   1.4856   2.8200   1.3126  -1.5693   1.3031  -0.9098   0.00    0.0
2021/01/01 01:45:30.000  -2430580.4283   5374288.2613   2418958.9001   5  35   1.4882   2.8235   1.3139  -1.5735   1.3067  -0.9116   0.00    0.0
2021/01/01 01:46:00.000  -2430580.3560   5374288.2154   2418958.8146   5  35   1.4908   2.8270   1.3152  -1.5777   1.3103  -0.9134   0.00    0.0
2021/01/01 01:46:30.000  -2430580.2372   5374287.9599   2418958.7525   5  35   1.4934   2.8305   1.3165  -1.5819   1.3139  -0.9152   0.00    0.0
2021/01/01 01:47:00.000  -2430580.1272   5374287.7086   2418958.7411   5  35   1.4959   2.8339   1.3179  -1.5860   1.3174  -0.9170   0.00    0.0
2021/01/01 01:47:30.000  -2430580.0389   5374287.6419   2418958.7280   5  35   1.4984   2.8372   1.3192  -1.5901   1.3209  -0.9187   0.00    0.0
2021/01/01 01:48:00.000  -2430580.0397   5374287.6718   2418958.7704   5  35   1.5009   2.8406   1.3205  -1.5941   1.3243  -0.9205   0.00    0.0
2021/01/01 01:48:30.000  -2430580.1184   5374287.7450   2418958.7701   5  35   1.5034   2.8438   1.3218  -1.5981   1.3277  -0.9222   0.00    0.0
2021/01/01 01:49:00.000  -2430580.1745   5374287.8137   2418958.7663   5  35   1.5059   2.8470   1.3231  -1.6020   1.3311  -0.9239   0.00    0.0
2021/01/01 01:49:30.000  -2430580.2387   5374287.8957   2418958.8276   5  35   1.5084   2.8502   1.3244  -1.6058   1.3344  -0.9256   0.00    0.0
2021/01/01 01:50:00.000  -2430580.2476   5374287.8239   2418958.8652   5  35   1.5108   2.8533   1.3257  -1.6096   1.3376  -0.9272   0.00    0.0
2021/01/01 01:50:30.000  -2430580.2735   5374287.7902   2418958.9124   5  35   1.5133   2.8564   1.3270  -1.6134   1.3408  -0.9288   0.00    0.0
2021/01/01 01:51:00.000  -2430580.2438   5374287.7904   2418958.9448   5  35   1.5157   2.8594   1.3283  -1.6171   1.3440  -0.9304   0.00    0.0
2021/01/01 01:51:30.000  -2430580.3031   5374287.8771   2418959.0259   5  35   1.5180   2.8624   1.3296  -1.6207   1.3471  -0.9320   0.00    0.0
2021/01/01 01:52:00.000  -2430580.3941   5374288.0091   2418959.0991   5  35   1.5204   2.8653   1.3308  -1.6243   1.3502  -0.9335   0.00    0.0
2021/01/01 01:52:30.000  -2430580.4771   5374288.1327   2418959.1540   5  35   1.5227   2.8682   1.3321  -1.6278   1.3532  -0.9351   0.00    0.0
2021/01/01 01:53:00.000  -2430580.5935   5374288.2981   2418959.2360   5  35   1.5251   2.8710   1.3334  -1.6313   1.3561  -0.9366   0.00    0.0
2021/01/01 01:53:30.000  -2430580.7064   5374288.4527   2418959.2542   5  35   1.5274   2.8737   1.3346  -1.6347   1.3591  -0.9380   0.00    0.0
2021/01/01 01:54:00.000  -2430580.6717   5374288.3540   2418959.2753   5  35   1.5296   2.8764   1.3359  -1.6380   1.3619  -0.9395   0.00    0.0
2021/01/01 01:54:30.000  -2430580.6434   5374288.2804   2418959.5321   5  34   1.5389   2.8909   1.4104  -1.6530   1.4072  -0.9752   0.00    0.0
2021/01/01 01:55:00.000  -2430580.5403   5374288.0428   2418959.5962   5  34   1.5413   2.8941   1.4121  -1.6567   1.4111  -0.9773   0.00    0.0
2021/01/01 01:55:30.000  -2430580.5369   5374288.0206   2418959.6168   5  34   1.5438   2.8973   1.4138  -1.6603   1.4150  -0.9792   0.00    0.0
2021/01/01 01:56:00.000  -2430580.5247   5374288.0817   2418959.6266   5  34   1.5462   2.9004   1.4155  -1.6639   1.4188  -0.9812   0.00    0.0
2021/01/01 01:56:30.000  -2430580.5447   5374288.1362   2418959.7016   5  34   1.5486   2.9034   1.4171  -1.6674   1.4226  -0.9831   0.00    0.0
2021/01/01 01:57:00.000  -2430580.5133   5374288.1337   2418959.6903   5  34   1.5509   2.9064   1.4188  -1.6709   1.4263  -0.9850   0.00    0.0
2021/01/01 01:57:30.000  -2430580.5031   5374288.1748   2418959.6189   5  34   1.5533   2.9093   1.4204  -1.6743   1.4300  -0.9869   0.00    0.0
2021/01/01 01:58:00.000  -2430580.5527   5374288.2466   2418959.5834   5  34   1.5556   2.9122   1.4220  -1.6777   1.4336  -0.9887   0.00    0.0
2021/01/01 01:58:30.000  -2430580.5774   5374288.2181   2418959.5248   5  34   1.5579   2.9150   1.4236  -1.6810   1.4371  -0.9905   0.00    0.0
2021/01/01 01:59:00.000  -2430580.6427   5374288.2327   2418959.5074   5  34   1.5601   2.9178   1.4252  -1.6842   1.4406  -0.9923   0.00    0.0
2021/01/01 01:59:30.000  -2430580.7529   5374288.3799   2418959.5626   5  34   1.5624   2.9205   1.4268  -1.6874   1.4440  -0.9940   0.00    0.0
2021/01/01 02:00:00.000  -2430580.8924   5374288.5778   2418959.6154   5  34   1.5646   2.9231   1.4283  -1.6905   1.4473  -0.9957   0.00    0.0
2021/01/01 02:00:30.000  -2430580.9252   5374288.5542   2418959.5685   5  34   1.5668   2.9257   1.4299  -1.6935   1.4506  -0.9974   0.00    0.0
2021/01/01 02:01:00.000  -2430580.8915   5374288.5459   2418959.5596   5  34   1.5689   2.9282   1.4314  -1.6965   1.4538  -0.9990   0.00    0.0
2021/01/01 02:01:30.000  -2430580.7867   5374288.4610   2418959.5778   5  34   1.5710   2.9306   1.4329  -1.6994   1.4570  -1.0006   0.00    0.0
2021/01/01 02:02:00.000  -2430580.7424   5374288.4662   2418959.6445   5  34   1.5731   2.9329   1.4344  -1.7022   1.4601  -1.0021   0.00    0.0
2021/01/01 02:02:30.000  -2430580.8049   5374288.5634   2418959.6847   5  34   1.5752   2.9352   1.4359  -1.7050   1.4631  -1.0036   0.00    0.0
2021/01/01 02:03:00.000  -2430580.8092   5374288.4313   2418959.6757   5  34   1.5773   2.9375   1.4374  -1.7077   1.4661  -1.0051   0.00    0.0
2021/01/01 02:03:30.000  -2430580.8098   5374288.2854   2418959.6586   5  34   1.5793   2.9396   1.4388  -1.7103   1.4689  -1.0065   0.00    0.0
2021/01/01 02:04:00.000  -2430580.7368   5374288.2506   2418959.6049   5  34   1.5813   2.9417   1.4402  -1.7129   1.4718  -1.0079   0.00    0.0
2021/01/01 02:04:30.000  -2430580.5877   5374288.1716   2418959.2650   5  35   1.5712   2.9305   1.3636  -1.6995   1.4297  -0.9631   0.00    0.0
2021/01/01 02:05:00.000  -2430580.6273   5374288.3298   2418959.3023   5  35   1.5733   2.9326   1.3652  -1.7022   1.4328  -0.9647   0.00    0.0
2021/01/01 02:05:30.000  -2430580.6192   5374288.3145   2418959.2910   5  35   1.5753   2.9347   1.3667  -1.7047   1.4359  -0.9663   0.00    0.0
2021/01/01 02:06:00.000  -2430580.6343   5374288.3758   2418959.3892   5  35   1.5774   2.9367   1.3682  -1.7073   1.4389  -0.9679   0.00    0.0
2021/01/01 02:06:30.000  -2430580.6618   5374288.4273   2418959.4507   5  35   1.5793   2.9386   1.3696  -1.7097   1.4418  -0.9694   0.00    0.0
2021/01/01 02:07:00.000  -2430580.6620   5374288.4031   2418959.4305   5  35   1.5813   2.9405   1.3711  -1.7121   1.4447  -0.9709   0.00    0.0
2021/01/01 02:07:30.000  -2430580.6714   5374288.3902   2418959.3929   5  35   1.5832   2.9422   1.3726  -1.7144   1.4475  -0.9724   0.00    0.0
2021/01/01 02:08:00.000  -2430580.6413   5374288.2852   2418959.3469   5  35   1.5851   2.9439   1.3740  -1.7166   1.4502  -0.9738   0.00    0.0
2021/01/01 02:08:30.000  -2430580.5999   5374288.2622   2418959.3547   5  35   1.5870   2.9455   1.3755  -1.7188   1.4529  -0.9751   0.00    0.0
2021/01/01 02:09:00.000  -2430580.6423   5374288.3172   2418959.4576   5  34   1.6039   2.9544   1.4039  -1.7341   1.4750  -1.0068   0.00    0.0
2021/01/01 02:09:30.000  -2430580.6010   5374288.3136   2418959.5282   5  34   1.6060   2.9563   1.4058  -1.7366   1.4783  -1.0086   0.00    0.0
2021/01/01 02:10:00.000  -2430580.6652   5374288.3081   2418959.6235   5  34   1.6081   2.9582   1.4076  -1.7392   1.4815  -1.0104   0.00    0.0
2021/01/01 02:10:30.000  -2430580.7009   5374288.3524   2418959.6298   5  34   1.6101   2.9600   1.4094  -1.7416   1.4847  -1.0122   0.00    0.0
2021/01/01 02:11:00.000  -2430580.7662   5374288.4535   2418959.6368   5  34   1.6122   2.9618   1.4111  -1.7440   1.4878  -1.0139   0.00    0.0
2021/01/01 02:11:30.000  -2430580.7489   5374288.3930   2418959.5665   5  34   1.6142   2.9634   1.4129  -1.7463   1.4909  -1.0156   0.00    0.0
2021/01/01 02:12:00.000  -2430580.7275   5374288.3268   2418959.4801   5  34   1.6161   2.9650   1.4146  -1.7485   1.4939  -1.0172   0.00    0.0
2021/01/01 02:12:30.000  -2430580.7858   5374288.3976   2418959.4267   5  34   1.6181   2.9665   1.4164  -1.7507   1.4968  -1.0188   0.00    0.0
2021/01/01 02:13:00.000  -2430580.7635   5374288.4606   2418959.3346   5  34   1.6200   2.9680   1.4181  -1.7528   1.4997  -1.0203   0.00    0.0
2021/01/01 02:13:30.000  -2430580.7945   5374288.6027   2418959.3595   5  34   1.6219   2.9694   1.4198  -1.7548   1.5025  -1.0219   0.00    0.0
2021/01/01 02:14:00.000  -2430580.7931   5374288.7324   2418959.4417   5  34   1.6237   2.9707   1.4215  -1.7567   1.5052  -1.0233   0.00    0.0
2021/01/01 02:14:30.000  -2430580.7961   5374288.9110   2418959.5202   5  34   1.6255   2.9719   1.4231  -1.7586   1.5079  -1.0248   0.00    0.0
2021/01/01 02:15:00.000  -2430580.8702   5374289.1049   2418959.6466   5  34   1.6273   2.9730   1.4248  -1.7604   1.5105  -1.0261   0.00    0.0
2021/01/01 02:15:30.000  -2430581.0237   5374289.3710   2418959.8338   5  34   1.6290   2.9741   1.4264  -1.7622   1.5130  -1.0275   0.00    0.0
2021/01/01 02:16:00.000  -2430581.0601   5374289.4622   2418959.8907   5  34   1.6307   2.9751   1.4281  -1.7638   1.5155  -1.0288   0.00    0.0
2021/01/01 02:16:30.000  -2430580.9872   5374289.3240   2418959.7559   5  34   1.6324   2.9760   1.4297  -1.7654   1.5179  -1.0301   0.00    0.0
2021/01/01 02:17:00.000  -2430580.8780   5374289.1161   2418959.6176   5  34   1.6341   2.9769   1.4312  -1.7669   1.5202  -1.0313   0.00    0.0
2021/01/01 02:17:30.000  -2430580.7903   5374288.8817   2418959.5639   5  34   1.6357   2.9777   1.4328  -1.7684   1.5225  -1.0324   0.00    0.0
2021/01/01 02:18:00.000  -2430580.7483   5374288.8339   2418959.5833   5  34   1.6372   2.9783   1.4344  -1.7697   1.5247  -1.0336   0.00    0.0
2021/01/01 02:18:30.000  -2430580.4536   5374288.4707   2418959.3704   5  33   1.7652   3.1111   1.5465  -1.9301   1.6872  -1.2031   0.00    0.0
2021/01/01 02:19:00.000  -2430580.3853   5374288.4114   2418959.3613   5  33   1.7670   3.1128   1.5486  -1.9321   1.6902  -1.2047   0.00    0.0
2021/01/01 02:19:30.000  -2430580.4176   5374288.4855   2418959.3247   5  33   1.7687   3.1143   1.5507  -1.9340   1.6932  -1.2063   0.00    0.0
2021/01/01 02:20:00.000  -2430580.4410   5374288.5495   2418959.3526   5  33   1.7704   3.1157   1.5528  -1.9358   1.6960  -1.2078   0.00    0.0
2021/01/01 02:20:30.000  -2430580.3843   5374288.5399   2418959.4188   5  33   1.7720   3.1170   1.5548  -1.9375   1.6988  -1.2093   0.00    0.0
2021/01/01 02:21:00.000  -2430580.3654   5374288.4527   2418959.4608   5  33   1.7736   3.1182   1.5568  -1.9391   1.7015  -1.2107   0.00    0.0
2021/01/01 02:21:30.000  -2430580.4018   5374288.4108   2418959.4600   5  33   1.7751   3.1193   1.5588  -1.9406   1.7041  -1.2120   0.00    0.0
2021/01/01 02:22:00.000  -2430580.4717   5374288.5131   2418959.4974   5  33   1.7766   3.1203   1.5607  -1.9420   1.7066  -1.2133   0.00    0.0
2021/01/01 02:22:30.000  -2430580.5821   5374288.6641   2418959.6103   5  33   1.7780   3.1212   1.5626  -1.9433   1.7090  -1.2145   0.00    0.0
2021/01/01 02:23:00.000  -2430580.6512   5374288.6311   2418959.6553   5  33   1.7793   3.1219   1.5644  -1.9446   1.7113  -1.2156   0.00    0.0
2021/01/01 02:23:30.000  -2430580.6218   5374288.5103   2418959.6063   5  33   1.7806   3.1226   1.5663  -1.9457   1.7135  -1.2167   0.00    0.0
2021/01/01 02:24:00.000  -2430580.5374   5374288.4599   2418959.5775   5  33   1.7819   3.1232   1.5681  -1.9467   1.7156  -1.2177   0.00    0.0
2021/01/01 02:24:30.000  -2430580.4821   5374288.4655   2418959.5783   5  33   1.7831   3.1236   1.5698  -1.9476   1.7177  -1.2187   0.00    0.0
2021/01/01 02:25:00.000  -2430580.4917   5374288.5565   2418959.5530   5  33   1.7843   3.1240   1.5715  -1.9484   1.7196  -1.2196   0.00    0.0
2021/01/01 02:25:30.000  -2430580.5245   5374288.5680   2418959.5929   5  33   1.7854   3.1242   1.5732  -1.9492   1.7215  -1.2204   0.00    0.0
2021/01/01 02:26:00.000  -2430580.6329   5374288.6861   2418959.6668   5  33   1.7865   3.1243   1.5749  -1.9498   1.7232  -1.2212   0.00    0.0
2021/01/01 02:26:30.000  -2430580.7530   5374288.8302   2418959.7003   5  33   1.7875   3.1244   1.5765  -1.9503   1.7249  -1.2219   0.00    0.0
2021/01/01 02:27:00.000  -2430580.8240   5374289.1257   2418959.7483   5  33   1.7884   3.1243   1.5781  -1.9507   1.7265  -1.2225   0.00    0.0
2021/01/01 02:27:30.000  -2430580.7773   5374289.2377   2418959.7247   5  33   1.7894   3.1241   1.5796  -1.9511   1.7280  -1.2231   0.00    0.0
2021/01/01 02:28:00.000  -2430580.8000   5374289.2947   2418959.7674   5  33   1.7902   3.1238   1.5811  -1.9513   1.7294  -1.2236   0.00    0.0
2021/01/01 02:28:30.000  -2430580.7950   5374289.2291   2418959.8102   5  33   1.7911   3.1234   1.5826  -1.9515   1.7307  -1.2240   0.00    0.0
2021/01/01 02:29:00.000  -2430580.7682   5374289.1131   2418959.7880   5  33   1.7918   3.1229   1.5840  -1.9515   1.7319  -1.2244   0.00    0.0
2021/01/01 02:29:30.000  -2430580.3523   5374288.1783   2418959.2383   5  34   1.7418   3.0010   1.4604  -1.8555   1.5721  -1.1128   0.00    0.0
2021/01/01 02:30:00.000  -2430580.3303   5374288.0337   2418959.2781   5  34   1.7427   3.0007   1.4619  -1.8558   1.5736  -1.1133   0.00    0.0
2021/01/01 02:30:30.000  -2430580.4396   5374288.2906   2418959.3669   5  34   1.7436   3.0004   1.4633  -1.8560   1.5750  -1.1138   0.00    0.0
2021/01/01 02:31:00.000  -2430580.3763   5374288.2375   2418959.3522   5  34   1.7444   3.0000   1.4647  -1.8561   1.5763  -1.1142   0.00    0.0
2021/01/01 02:31:30.000  -2430580.3704   5374288.1641   2418959.3952   5  34   1.7453   2.9995   1.4661  -1.8561   1.5775  -1.1146   0.00    0.0
2021/01/01 02:32:00.000  -2430580.4550   5374288.1432   2418959.4237   5  34   1.7460   2.9989   1.4674  -1.8561   1.5787  -1.1149   0.00    0.0
2021/01/01 02:32:30.000  -2430580.4555   5374288.0614   2418959.4338   5  34   1.7468   2.9982   1.4688  -1.8559   1.5798  -1.1151   0.00    0.0
2021/01/01 02:33:00.000  -2430580.5112   5374288.1661   2418959.4877   5  34   1.7475   2.9975   1.4701  -1.8557   1.5808  -1.1153   0.00    0.0
2021/01/01 02:33:30.000  -2430580.5766   5374288.3512   2418959.5166   5  34   1.7482   2.9967   1.4713  -1.8555   1.5818  -1.1155   0.00    0.0
2021/01/01 02:34:00.000  -2430580.6287   5374288.4508   2418959.5407   5  34   1.7488   2.9957   1.4726  -1.8551   1.5827  -1.1156   0.00    0.0
2021/01/01 02:34:30.000  -2430580.5552   5374288.2887   2418959.5253   5  34   1.7494   2.9948   1.4738  -1.8547   1.5835  -1.1156   0.00    0.0
2021/01/01 02:35:00.000  -2430580.5232   5374288.3070   2418959.5741   5  34   1.7500   2.9937   1.4750  -1.8542   1.5842  -1.1156   0.00    0.0
2021/01/01 02:35:30.000  -2430580.4777   5374288.3721   2418959.5870   5  34   1.7506   2.9925   1.4762  -1.8536   1.5849  -1.1156   0.00    0.0
2021/01/01 02:36:00.000  -2430580.4112   5374288.3772   2418959.6102   5  34   1.7511   2.9913   1.4773  -1.8530   1.5855  -1.1155   0.00    0.0
2021/01/01 02:36:30.000  -2430580.5171   5374288.6378   2418959.6393   5  34   1.7516   2.9900   1.4784  -1.8523   1.5860  -1.1154   0.00    0.0
2021/01/01 02:37:00.000  -2430580.6063   5374288.7930   2418959.5971   5  34   1.7520   2.9887   1.4795  -1.8515   1.5865  -1.1152   0.00    0.0
2021/01/01 02:37:30.000  -2430580.6446   5374288.9091   2418959.5592   5  34   1.7524   2.9872   1.4806  -1.8506   1.5869  -1.1149   0.00    0.0
2021/01/01 02:38:00.000  -2430580.6246   5374289.0182   2418959.5495   5  36   1.5969   2.8687   1.3947  -1.6822   1.4813  -0.9636   0.00    0.0
2021/01/01 02:38:30.000  -2430580.5933   5374289.0099   2418959.5410   5  36   1.5977   2.8684   1.3963  -1.6825   1.4829  -0.9640   0.00    0.0
2021/01/01 02:39:00.000  -2430580.6482   5374289.1511   2418959.5322   5  36   1.5985   2.8681   1.3979  -1.6826   1.4844  -0.9644   0.00    0.0
2021/01/01 02:39:30.000  -2430580.6643   5374289.2184   2418959.5919   5  36   1.5993   2.8677   1.3994  -1.6828   1.4858  -0.9648   0.00    0.0
2021/01/01 02:40:00.000  -2430580.6262   5374289.1467   2418959.6084   5  36   1.6000   2.8673   1.4010  -1.6828   1.4872  -0.9651   0.00    0.0
2021/01/01 02:40:30.000  -2430580.5978   5374289.1921   2418959.6527   5  36   1.6008   2.8668   1.4026  -1.6829   1.4885  -0.9654   0.00    0.0
2021/01/01 02:41:00.000  -2430580.6355   5374289.2587   2418959.7019   5  36   1.6015   2.8663   1.4041  -1.6829   1.4898  -0.9656   0.00    0.0
2021/01/01 02:41:30.000  -2430580.6100   5374289.0746   2418959.7065   5  36   1.6022   2.8657   1.4056  -1.6828   1.4910  -0.9658   0.00    0.0
2021/01/01 02:42:00.000  -2430580.6303   5374289.0317   2418959.7676   5  36   1.6029   2.8650   1.4071  -1.6827   1.4922  -0.9660   0.00    0.0
2021/01/01 02:42:30.000  -2430580.7150   5374289.0658   2418959.7426   5  36   1.6036   2.8643   1.4086  -1.6826   1.4933  -0.9662   0.00    0.0
2021/01/01 02:43:00.000  -2430580.6966   5374289.0301   2418959.6730   5  36   1.6043   2.8636   1.4101  -1.6824   1.4944  -0.9663   0.00    0.0
2021/01/01 02:43:30.000  -2430580.6397   5374288.8702   2418959.5986   5  36   1.6050   2.8628   1.4116  -1.6822   1.4954  -0.9664   0.00    0.0
2021/01/01 02:44:00.000  -2430580.6695   5374288.8283   2418959.5961   5  36   1.6056   2.8619   1.4130  -1.6819   1.4964  -0.9665   0.00    0.0
2021/01/01 02:44:30.000  -2430580.7326   5374288.9243   2418959.6688   5  36   1.6063   2.8610   1.4144  -1.6816   1.4973  -0.9665   0.00    0.0
2021/01/01 02:45:00.000  -2430580.7859   5374288.9579   2418959.7605   5  36   1.6069   2.8600   1.4159  -1.6812   1.4982  -0.9666   0.00    0.0
2021/01/01 02:45:30.000  -2430580.7833   5374288.9215   2418959.7804   5  36   1.6075   2.8590   1.4173  -1.6809   1.4991  -0.9665   0.00    0.0
2021/01/01 02:46:00.000  -2430580.6991   5374288.8364   2418959.7904   5  36   1.6081   2.8580   1.4186  -1.6804   1.4998  -0.9665   0.00    0.0
2021/01/01 02:46:30.000  -2430580.6101   5374288.8219   2418959.7960   5  36   1.6087   2.8569   1.4200  -1.6800   1.5006  -0.9664   0.00    0.0
2021/01/01 02:47:00.000  -2430580.5484   5374288.6909   2418959.7696   5  36   1.6093   2.8557   1.4214  -1.6795   1.5013  -0.9663   0.00    0.0
2021/01/01 02:47:30.000  -2430580.4679   5374288.6725   2418959.8268   5  36   1.6099   2.8545   1.4227  -1.6789   1.5019  -0.9662   0.00    0.0
2021/01/01 02:48:00.000  -2430580.4786   5374288.7796   2418959.8307   5  36   1.6105   2.8533   1.4240  -1.6784   1.5025  -0.9661   0.00    0.0
2021/01/01 02:48:30.000  -2430580.5531   5374288.8972   2418959.8899   5  36   1.6111   2.8520   1.4254  -1.6777   1.5030  -0.9659   0.00    0.0
2021/01/01 02:49:00.000  -2430580.5715   5374288.9208   2418959.9373   5  36   1.6116   2.8507   1.4266  -1.6771   1.5035  -0.9657   0.00    0.0
2021/01/01 02:49:30.000  -2430580.2689   5374288.3223   2418959.6167   5  34   1.6609   3.0955   1.4821  -1.7599   1.6337  -1.0390   0.00    0.0
2021/01/01 02:50:00.000  -2430580.4117   5374288.4188   2418959.6145   5  34   1.6618   3.0944   1.4841  -1.7599   1.6352  -1.0396   0.00    0.0
2021/01/01 02:50:30.000  -2430580.5633   5374288.4529   2418959.6014   5  34   1.6627   3.0933   1.4861  -1.7599   1.6367  -1.0402   0.00    0.0
2021/01/01 02:51:00.000  -2430580.5865   5374288.3819   2418959.5769   5  34   1.6636   3.0921   1.4881  -1.7598   1.6381  -1.0407   0.00    0.0
2021/01/01 02:51:30.000  -2430580.5445   5374288.1923   2418959.5865   5  34   1.6645   3.0908   1.4900  -1.7598   1.6395  -1.0412   0.00    0.0
2021/01/01 02:52:00.000  -2430580.4729   5374287.9037   2418959.5618   5  34   1.6653   3.0895   1.4920  -1.7596   1.6408  -1.0417   0.00    0.0
2021/01/01 02:52:30.000  -2430580.4792   5374287.9051   2418959.6626   5  34   1.6662   3.0882   1.4939  -1.7595   1.6421  -1.0422   0.00    0.0
2021/01/01 02:53:00.000  -2430580.4632   5374287.8960   2418959.6563   5  34   1.6670   3.0868   1.4958  -1.7592   1.6434  -1.0426   0.00    0.0
2021/01/01 02:53:30.000  -2430580.4552   5374287.8815   2418959.6327   5  34   1.6679   3.0854   1.4977  -1.7590   1.6445  -1.0430   0.00    0.0
2021/01/01 02:54:00.000  -2430580.4647   5374287.9095   2418959.6101   5  34   1.6687   3.0839   1.4996  -1.7587   1.6457  -1.0434   0.00    0.0
2021/01/01 02:54:30.000  -2430580.4716   5374287.9053   2418959.5693   5  34   1.6695   3.0824   1.5015  -1.7584   1.6467  -1.0438   0.00    0.0
2021/01/01 02:55:00.000  -2430580.4496   5374287.8813   2418959.5681   5  34   1.6703   3.0808   1.5033  -1.7581   1.6478  -1.0441   0.00    0.0
2021/01/01 02:55:30.000  -2430580.4313   5374287.9538   2418959.5603   5  34   1.6711   3.0792   1.5051  -1.7577   1.6487  -1.0444   0.00    0.0
2021/01/01 02:56:00.000  -2430580.3562   5374287.9530   2418959.5394   5  34   1.6719   3.0775   1.5070  -1.7573   1.6497  -1.0447   0.00    0.0
2021/01/01 02:56:30.000  -2430580.2917   5374287.9544   2418959.5568   5  34   1.6727   3.0758   1.5087  -1.7568   1.6506  -1.0449   0.00    0.0
2021/01/01 02:57:00.000  -2430580.3337   5374288.0513   2418959.6265   5  34   1.6735   3.0740   1.5105  -1.7563   1.6514  -1.0452   0.00    0.0
2021/01/01 02:57:30.000  -2430580.4179   5374288.1556   2418959.7394   5  34   1.6743   3.0723   1.5123  -1.7558   1.6522  -1.0454   0.00    0.0
2021/01/01 02:58:00.000  -2430580.4004   5374288.1019   2418959.7864   5  34   1.6750   3.0704   1.5140  -1.7553   1.6529  -1.0455   0.00    0.0
2021/01/01 02:58:30.000  -2430580.3728   5374287.9670   2418959.7462   5  34   1.6758   3.0685   1.5157  -1.7547   1.6536  -1.0457   0.00    0.0
2021/01/01 02:59:00.000  -2430580.4274   5374287.8652   2418959.7061   5  34   1.6766   3.0666   1.5174  -1.7541   1.6543  -1.0458   0.00    0.0
2021/01/01 02:59:30.000  -2430580.4223   5374287.7461   2418959.6384   5  34   1.6773   3.0647   1.5191  -1.7535   1.6549  -1.0459   0.00    0.0
2021/01/01 03:00:00.000  -2430580.3055   5374287.6026   2418959.5901   5  34   1.6781   3.0627   1.5208  -1.7528   1.6555  -1.0460   0.00    0.0
2021/01/01 03:00:30.000  -2430580.2774   5374287.7240   2418959.6793   5  34   1.6788   3.0607   1.5224  -1.7521   1.6560  -1.0461   0.00    0.0
2021/01/01 03:01:00.000  -2430580.2625   5374287.8105   2418959.7546   5  34   1.6795   3.0586   1.5241  -1.7514   1.6565  -1.0461   0.00    0.0
2021/01/01 03:01:30.000  -2430580.2682   5374287.8745   2418959.7631   5  34   1.6803   3.0565   1.5257  -1.7507   1.6569  -1.0461   0.00    0.0
2021/01/01 03:02:00.000  -2430580.1276   5374287.7445   2418959.6374   5  35   1.5657   2.9850   1.5192  -1.6328   1.6264  -0.9992   0.00    0.0
2021/01/01 03:02:30.000  -2430580.0189   5374287.6074   2418959.4830   5  35   1.5666   2.9832   1.5209  -1.6324   1.6271  -0.9997   0.00    0.0
2021/01/01 03:03:00.000  -2430579.8858   5374287.4852   2418959.4120   5  35   1.5675   2.9814   1.5226  -1.6320   1.6278  -1.0001   0.00    0.0
2021/01/01 03:03:30.000  -2430579.7900   5374287.3459   2418959.3931   5  35   1.5684   2.9796   1.5243  -1.6315   1.6284  -1.0005   0.00    0.0
2021/01/01 03:04:00.000  -2430579.7980   5374287.2238   2418959.4589   5  35   1.5693   2.9777   1.5260  -1.6311   1.6290  -1.0008   0.00    0.0
2021/01/01 03:04:30.000  -2430579.7284   5374287.1175   2418959.5071   5  35   1.5702   2.9758   1.5276  -1.6306   1.6296  -1.0012   0.00    0.0
2021/01/01 03:05:00.000  -2430579.6950   5374287.1018   2418959.5432   5  35   1.5711   2.9739   1.5292  -1.6301   1.6301  -1.0015   0.00    0.0
2021/01/01 03:05:30.000  -2430579.5429   5374287.0385   2418959.3163   5  36   1.5555   2.9615   1.4868  -1.6121   1.6025  -0.9597   0.00    0.0
2021/01/01 03:06:00.000  -2430579.6216   5374287.1820   2418959.3298   5  36   1.5565   2.9599   1.4886  -1.6119   1.6035  -0.9602   0.00    0.0
2021/01/01 03:06:30.000  -2430579.6663   5374287.2290   2418959.3279   5  36   1.5576   2.9582   1.4903  -1.6117   1.6044  -0.9607   0.00    0.0
2021/01/01 03:07:00.000  -2430579.7235   5374287.2806   2418959.3167   5  36   1.5586   2.9565   1.4920  -1.6115   1.6052  -0.9613   0.00    0.0
2021/01/01 03:07:30.000  -2430579.7901   5374287.3554   2418959.3110   5  36   1.5597   2.9548   1.4938  -1.6112   1.6061  -0.9618   0.00    0.0
2021/01/01 03:08:00.000  -2430579.8320   5374287.3829   2418959.2209   5  36   1.5607   2.9531   1.4955  -1.6110   1.6069  -0.9622   0.00    0.0
2021/01/01 03:08:30.000  -2430579.9201   5374287.3864   2418959.1692   5  36   1.5617   2.9513   1.4971  -1.6107   1.6077  -0.9627   0.00    0.0
2021/01/01 03:09:00.000  -2430579.9442   5374287.4138   2418959.1314   5  36   1.5628   2.9495   1.4988  -1.6104   1.6084  -0.9632   0.00    0.0
2021/01/01 03:09:30.000  -2430579.9358   5374287.3982   2418959.1642   5  36   1.5638   2.9477   1.5005  -1.6102   1.6091  -0.9636   0.00    0.0
2021/01/01 03:10:00.000  -2430579.8735   5374287.3668   2418959.1945   5  36   1.5649   2.9459   1.5021  -1.6099   1.6097  -0.9641   0.00    0.0
2021/01/01 03:10:30.000  -2430579.8456   5374287.2408   2418959.1976   5  36   1.5660   2.9440   1.5037  -1.6095   1.6104  -0.9645   0.00    0.0
2021/01/01 03:11:00.000  -2430579.8135   5374286.9922   2418959.1293   5  36   1.5670   2.9421   1.5053  -1.6092   1.6109  -0.9649   0.00    0.0
2021/01/01 03:11:30.000  -2430579.8019   5374286.6499   2418958.9431   5  35   1.5683   3.0114   1.5374  -1.6134   1.6720  -0.9688   0.00    0.0
2021/01/01 03:12:00.000  -2430579.8076   5374286.4933   2418958.9163   5  35   1.5693   3.0098   1.5394  -1.6132   1.6730  -0.9694   0.00    0.0
2021/01/01 03:12:30.000  -2430579.7794   5374286.5654   2418958.9038   5  35   1.5704   3.0082   1.5414  -1.6131   1.6741  -0.9700   0.00    0.0
2021/01/01 03:13:00.000  -2430579.7133   5374286.6686   2418958.9194   5  35   1.5715   3.0066   1.5434  -1.6129   1.6751  -0.9705   0.00    0.0
2021/01/01 03:13:30.000  -2430579.7100   5374286.8342   2418959.0078   5  35   1.5726   3.0049   1.5453  -1.6127   1.6760  -0.9710   0.00    0.0
2021/01/01 03:14:00.000  -2430579.7458   5374286.9874   2418959.0879   5  35   1.5737   3.0032   1.5472  -1.6125   1.6770  -0.9715   0.00    0.0
2021/01/01 03:14:30.000  -2430579.7978   5374287.0901   2418959.1585   5  35   1.5748   3.0015   1.5491  -1.6123   1.6778  -0.9720   0.00    0.0
2021/01/01 03:15:00.000  -2430579.8364   5374287.1404   2418959.2036   5  35   1.5760   2.9998   1.5510  -1.6121   1.6787  -0.9725   0.00    0.0
2021/01/01 03:15:30.000  -2430579.8239   5374287.2099   2418959.2583   5  35   1.5771   2.9981   1.5528  -1.6119   1.6795  -0.9730   0.00    0.0
2021/01/01 03:16:00.000  -2430579.8364   5374287.2142   2418959.2204   5  35   1.5782   2.9963   1.5546  -1.6117   1.6802  -0.9735   0.00    0.0
2021/01/01 03:16:30.000  -2430579.8238   5374287.1036   2418959.1195   5  35   1.5793   2.9945   1.5564  -1.6114   1.6810  -0.9739   0.00    0.0
2021/01/01 03:17:00.000  -2430579.8251   5374287.0108   2418959.0413   5  35   1.5805   2.9927   1.5582  -1.6112   1.6817  -0.9744   0.00    0.0
2021/01/01 03:17:30.000  -2430579.7430   5374286.7838   2418958.9501   5  35   1.5816   2.9908   1.5600  -1.6109   1.6823  -0.9748   0.00    0.0
2021/01/01 03:18:00.000  -2430579.6417   5374286.5414   2418958.8440   5  35   1.5828   2.9889   1.5617  -1.6106   1.6829  -0.9753   0.00    0.0
2021/01/01 03:18:30.000  -2430579.5583   5374286.4023   2418958.8018   5  35   1.5839   2.9871   1.5634  -1.6103   1.6835  -0.9757   0.00    0.0
2021/01/01 03:19:00.000  -2430579.5888   5374286.4315   2418958.8543   5  35   1.5851   2.9851   1.5651  -1.6101   1.6840  -0.9761   0.00    0.0
2021/01/01 03:19:30.000  -2430579.5886   5374286.5492   2418958.8919   5  35   1.5863   2.9832   1.5668  -1.6098   1.6845  -0.9765   0.00    0.0
2021/01/01 03:20:00.000  -2430579.5974   5374286.6171   2418958.9295   5  35   1.5875   2.9812   1.5684  -1.6095   1.6849  -0.9768   0.00    0.0
2021/01/01 03:20:30.000  -2430579.6593   5374286.6777   2418958.9658   5  35   1.5886   2.9792   1.5701  -1.6091   1.6853  -0.9772   0.00    0.0
2021/01/01 03:21:00.000  -2430579.6964   5374286.6556   2418958.9368   5  35   1.5898   2.9772   1.5716  -1.6088   1.6857  -0.9776   0.00    0.0
2021/01/01 03:21:30.000  -2430579.6749   5374286.4930   2418958.7827   5  35   1.5910   2.9752   1.5732  -1.6085   1.6860  -0.9779   0.00    0.0
2021/01/01 03:22:00.000  -2430579.6455   5374286.3503   2418958.6633   5  35   1.5922   2.9731   1.5747  -1.6082   1.6862  -0.9782   0.00    0.0
2021/01/01 03:22:30.000  -2430579.6948   5374286.5400   2418958.6744   5  34   1.6300   3.3640   1.5990  -1.7683   1.8079  -1.0246   0.00    0.0
2021/01/01 03:23:00.000  -2430579.6588   5374286.5415   2418958.6791   5  34   1.6314   3.3622   1.6008  -1.7684   1.8088  -1.0253   0.00    0.0
2021/01/01 03:23:30.000  -2430579.5181   5374286.2730   2418958.6859   5  34   1.6328   3.3604   1.6025  -1.7685   1.8098  -1.0260   0.00    0.0
2021/01/01 03:24:00.000  -2430579.4495   5374286.0402   2418958.6752   5  34   1.6342   3.3585   1.6042  -1.7685   1.8106  -1.0267   0.00    0.0
2021/01/01 03:24:30.000  -2430579.5007   5374286.1362   2418958.7584   5  34   1.6356   3.3565   1.6059  -1.7685   1.8114  -1.0274   0.00    0.0
2021/01/01 03:25:00.000  -2430579.5877   5374286.4677   2418958.9299   5  34   1.6370   3.3545   1.6075  -1.7685   1.8121  -1.0280   0.00    0.0
2021/01/01 03:25:30.000  -2430579.6791   5374286.7755   2418959.0527   5  34   1.6383   3.3524   1.6091  -1.7684   1.8128  -1.0286   0.00    0.0
2021/01/01 03:26:00.000  -2430579.6805   5374286.7977   2418959.0975   5  34   1.6397   3.3502   1.6107  -1.7683   1.8133  -1.0292   0.00    0.0
2021/01/01 03:26:30.000  -2430579.6631   5374286.7376   2418959.0744   5  34   1.6411   3.3479   1.6122  -1.7682   1.8139  -1.0297   0.00    0.0
2021/01/01 03:27:00.000  -2430579.5746   5374286.6005   2418959.0046   5  34   1.6425   3.3456   1.6137  -1.7681   1.8143  -1.0303   0.00    0.0
2021/01/01 03:27:30.000  -2430579.5464   5374286.5886   2418958.9760   5  34   1.6439   3.3432   1.6152  -1.7679   1.8147  -1.0308   0.00    0.0
2021/01/01 03:28:00.000  -2430579.5986   5374286.5910   2418958.9643   5  34   1.6453   3.3408   1.6166  -1.7677   1.8150  -1.0313   0.00    0.0
2021/01/01 03:28:30.000  -2430579.6831   5374286.6018   2418958.9370   5  34   1.6467   3.3383   1.6180  -1.7674   1.8152  -1.0318   0.00    0.0
2021/01/01 03:29:00.000  -2430579.7060   5374286.5887   2418958.8976   5  34   1.6481   3.3357   1.6194  -1.7672   1.8154  -1.0322   0.00    0.0
2021/01/01 03:29:30.000  -2430579.8232   5374287.0216   2418958.9092   5  33   1.6720   3.6406   1.6402  -1.8768   1.9146  -1.0655   0.00    0.0
2021/01/01 03:30:00.000  -2430579.7525   5374286.8352   2418958.8260   5  33   1.6737   3.6386   1.6417  -1.8774   1.9152  -1.0663   0.00    0.0
2021/01/01 03:30:30.000  -2430579.6813   5374286.8065   2418958.7944   5  33   1.6754   3.6366   1.6431  -1.8780   1.9157  -1.0671   0.00    0.0
2021/01/01 03:31:00.000  -2430579.7368   5374287.0087   2418958.8775   5  33   1.6771   3.6345   1.6445  -1.8785   1.9162  -1.0678   0.00    0.0
2021/01/01 03:31:30.000  -2430579.5418   5374286.5979   2418958.9115   5  34   1.5357   3.3700   1.6356  -1.6159   1.8507  -1.0088   0.00    0.0
2021/01/01 03:32:00.000  -2430579.5368   5374286.4304   2418958.9524   5  34   1.5379   3.3699   1.6372  -1.6179   1.8523  -1.0104   0.00    0.0
2021/01/01 03:32:30.000  -2430579.4954   5374286.2448   2418958.9823   5  34   1.5400   3.3698   1.6387  -1.6199   1.8537  -1.0120   0.00    0.0
2021/01/01 03:33:00.000  -2430579.4872   5374286.1974   2418959.0008   5  34   1.5422   3.3697   1.6402  -1.6219   1.8551  -1.0136   0.00    0.0
2021/01/01 03:33:30.000  -2430579.7953   5374287.2147   2418959.6325   5  33   1.5931   3.5453   1.8011  -1.7516   2.0647  -1.1491   0.00    0.0
2021/01/01 03:34:00.000  -2430579.7455   5374287.2113   2418959.6214   5  33   1.5956   3.5469   1.8032  -1.7547   2.0675  -1.1514   0.00    0.0
2021/01/01 03:34:30.000  -2430579.7506   5374287.3258   2418959.6694   5  33   1.5982   3.5484   1.8052  -1.7576   2.0701  -1.1536   0.00    0.0
2021/01/01 03:35:00.000  -2430579.7699   5374287.4360   2418959.6920   5  33   1.6007   3.5498   1.8072  -1.7605   2.0726  -1.1558   0.00    0.0
2021/01/01 03:35:30.000  -2430579.7489   5374287.5447   2418959.6896   5  33   1.6032   3.5511   1.8090  -1.7633   2.0750  -1.1579   0.00    0.0
2021/01/01 03:36:00.000  -2430579.7095   5374287.4732   2418959.6405   5  33   1.6057   3.5522   1.8108  -1.7661   2.0772  -1.1600   0.00    0.0
2021/01/01 03:36:30.000  -2430579.6913   5374287.4083   2418959.6010   5  33   1.6082   3.5532   1.8125  -1.7688   2.0793  -1.1620   0.00    0.0
2021/01/01 03:37:00.000  -2430579.6152   5374287.2368   2418959.4880   5  33   1.6107   3.5540   1.8141  -1.7714   2.0812  -1.1639   0.00    0.0
2021/01/01 03:37:30.000  -2430579.6084   5374287.2913   2418959.5151   5  33   1.6132   3.5547   1.8156  -1.7740   2.0831  -1.1658   0.00    0.0
2021/01/01 03:38:00.000  -2430579.6424   5374287.3515   2418959.6278   5  33   1.6157   3.5553   1.8171  -1.7765   2.0847  -1.1677   0.00    0.0
2021/01/01 03:38:30.000  -2430579.7059   5374287.3771   2418959.6969   5  33   1.6181   3.5558   1.8185  -1.7789   2.0863  -1.1695   0.00    0.0
2021/01/01 03:39:00.000  -2430579.7318   5374287.1888   2418959.6884   5  33   1.6206   3.5561   1.8197  -1.7812   2.0877  -1.1712   0.00    0.0
